City_ID,City,Country,Lat,Lng,Max Temp,Humidity,Cloudiness,Wind Speed,Current Description
0,Hilo,US,19.7297,-155.09,80.26,73,0,4.0,clear sky
1,Jamestown,US,42.097,-79.2353,70.05,40,20,12.66,few clouds
2,Rypefjord,NO,70.6333,23.6667,43.27,75,75,11.5,broken clouds
3,Punta Arenas,CL,-53.15,-70.9167,41.11,70,75,18.41,broken clouds
4,Raudeberg,NO,61.9875,5.1352,56.86,86,66,13.09,broken clouds
5,Ushuaia,AR,-54.8,-68.3,42.46,56,75,26.46,broken clouds
6,Saskylakh,RU,71.9167,114.0833,39.7,79,0,16.22,clear sky
7,Batsfjord,NO,70.6345,29.7185,44.53,70,75,13.8,broken clouds
8,Castro,BR,-24.7911,-50.0119,60.17,84,100,5.66,overcast clouds
9,Busselton,AU,-33.65,115.3333,63.14,89,94,20.71,light rain
10,Goba,ET,7.0167,39.9833,50.32,98,100,3.09,moderate rain
11,Albany,US,42.6001,-73.9662,74.03,49,6,1.01,clear sky
12,Jiaocheng,CN,24.6774,116.1389,74.05,100,100,0.92,light rain
13,Geraldton,AU,-28.7667,114.6,63.01,94,40,10.36,scattered clouds
14,Havoysund,NO,70.9963,24.6622,43.03,76,100,18.05,overcast clouds
15,Cape Town,ZA,-33.9258,18.4232,66.38,45,0,3.0,clear sky
16,Mataura,NZ,-46.1927,168.8643,39.47,96,100,1.97,moderate rain
17,Punta Arenas,CL,-53.15,-70.9167,41.11,70,75,18.41,broken clouds
18,Rovaniemi,FI,66.5,25.7167,63.81,29,0,4.61,clear sky
19,Mahebourg,MU,-20.4081,57.7,70.09,88,75,10.36,broken clouds
20,Swellendam,ZA,-34.0226,20.4417,64.08,29,99,5.26,overcast clouds
21,Broome,US,42.2506,-75.833,72.7,51,20,14.97,few clouds
22,Lebu,CL,-37.6167,-73.65,53.98,61,6,12.71,clear sky
23,Bluff,NZ,-46.6,168.3333,39.79,95,100,13.62,light rain
24,Vallenar,CL,-28.5708,-70.7581,79.2,16,5,5.21,clear sky
25,Kapaa,US,22.0752,-159.319,79.12,75,20,10.36,few clouds
26,Souillac,MU,-20.5167,57.5167,70.18,88,75,10.36,light rain
27,Yellowknife,CA,62.456,-114.3525,70.32,46,75,10.36,broken clouds
28,Camaqua,BR,-30.8511,-51.8122,52.32,57,2,9.37,clear sky
29,Cape Town,ZA,-33.9258,18.4232,66.38,45,0,3.0,clear sky
30,Punta Arenas,CL,-53.15,-70.9167,41.11,70,75,18.41,broken clouds
31,Krasnozerskoye,RU,53.9828,79.2374,66.0,75,100,13.44,overcast clouds
32,Springbok,ZA,-29.6643,17.8865,59.09,26,10,8.55,clear sky
33,Saldanha,ZA,-33.0117,17.9442,60.85,40,39,8.95,scattered clouds
34,Hermanus,ZA,-34.4187,19.2345,64.94,40,33,9.33,scattered clouds
35,Rikitea,PF,-23.1203,-134.9692,74.97,70,100,14.03,overcast clouds
36,Cap Malheureux,MU,-19.9842,57.6142,69.48,85,20,4.0,light rain
37,Jamestown,US,42.097,-79.2353,70.05,40,20,12.66,few clouds
38,Pangnirtung,CA,66.1451,-65.7125,39.2,81,75,11.5,broken clouds
39,Broome,US,42.2506,-75.833,72.7,51,20,14.97,few clouds
40,Atuona,PF,-9.8,-139.0333,77.38,72,7,14.9,light rain
41,Hobart,AU,-42.8794,147.3294,46.26,85,100,18.41,light rain
42,Dikson,RU,73.5069,80.5464,32.25,87,96,6.4,overcast clouds
43,Torbay,CA,47.6666,-52.7314,62.28,96,100,14.97,light rain
44,Barrow,US,71.2906,-156.7887,30.22,93,100,11.5,overcast clouds
45,Harper,LR,4.375,-7.7169,77.2,87,100,9.15,light rain
46,Cape Town,ZA,-33.9258,18.4232,66.38,45,0,3.0,clear sky
47,Pevek,RU,69.7008,170.3133,43.14,64,100,3.58,overcast clouds
48,Les Cayes,HT,18.2,-73.75,85.87,60,100,9.66,overcast clouds
49,Punta Arenas,CL,-53.15,-70.9167,41.11,70,75,18.41,broken clouds
50,Rikitea,PF,-23.1203,-134.9692,74.97,70,100,14.03,overcast clouds
51,Tessalit,ML,20.1986,1.0114,98.51,6,3,7.99,clear sky
52,Jamestown,US,42.097,-79.2353,70.05,40,20,12.66,few clouds
53,Oyama,JP,36.3,139.8,71.58,91,100,2.8,light rain
54,Norman Wells,CA,65.282,-126.8329,50.04,66,75,16.11,broken clouds
55,Port Lincoln,AU,-34.7333,135.8667,55.99,75,100,8.86,overcast clouds
56,Port Hedland,AU,-20.3167,118.5667,64.45,72,0,5.75,clear sky
57,Mataura,NZ,-46.1927,168.8643,39.47,96,100,1.97,moderate rain
58,Puerto Ayora,EC,-0.7393,-90.3518,80.56,69,0,11.39,clear sky
59,Calama,CL,-22.4667,-68.9333,68.49,4,0,5.75,clear sky
60,Bredasdorp,ZA,-34.5322,20.0403,58.68,51,100,3.71,overcast clouds
61,Maridi,SS,4.9158,29.4742,73.38,72,86,3.11,overcast clouds
62,Maraa,BR,-1.8333,-65.3667,85.86,66,79,2.62,light rain
63,Srivardhan,IN,18.0333,73.0167,82.51,77,95,4.43,overcast clouds
64,Puerto Ayora,EC,-0.7393,-90.3518,80.56,69,0,11.39,clear sky
65,Haines Junction,CA,60.7522,-137.5108,57.13,55,100,4.79,overcast clouds
66,Sturgis,US,41.7992,-85.4192,78.31,32,40,11.5,scattered clouds
67,Ushuaia,AR,-54.8,-68.3,42.46,56,75,26.46,broken clouds
68,Ayutla,MX,20.1167,-104.3333,80.08,51,57,2.21,broken clouds
69,Pisco,PE,-13.7,-76.2167,67.01,77,2,10.36,haze
70,Bengkulu,ID,-3.8004,102.2655,74.64,87,99,2.19,overcast clouds
71,Kalmunai,LK,7.4167,81.8167,78.66,86,95,8.63,overcast clouds
72,Verkhnevilyuysk,RU,63.4453,120.3167,54.82,61,100,4.61,overcast clouds
73,Bara,NG,10.3744,10.7288,86.4,48,9,5.3,clear sky
74,Port Lincoln,AU,-34.7333,135.8667,55.99,75,100,8.86,overcast clouds
75,Paamiut,GL,61.994,-49.6678,39.49,81,100,7.83,overcast clouds
76,Xiaoshi,CN,41.2971,124.1209,59.83,99,100,2.86,moderate rain
77,Lincoln,US,40.8,-96.667,80.01,67,75,1.99,broken clouds
78,Jamestown,US,42.097,-79.2353,70.05,40,20,12.66,few clouds
79,Vardo,NO,70.3705,31.1107,46.38,66,75,9.22,broken clouds
80,Mali,GN,12.079,-12.2982,75.06,51,14,3.65,few clouds
81,Upernavik,GL,72.7868,-56.1549,31.86,77,17,10.36,few clouds
82,Albany,US,42.6001,-73.9662,74.03,49,6,1.01,clear sky
83,Vaasa,FI,63.096,21.6158,64.29,88,40,3.44,scattered clouds
84,Tuktoyaktuk,CA,69.4541,-133.0374,41.0,65,75,9.22,broken clouds
85,Qaanaaq,GL,77.484,-69.3632,31.24,85,100,4.9,overcast clouds
86,Valea Nucarilor,RO,45.0333,28.9333,66.63,88,24,5.75,few clouds
87,Nemuro,JP,43.3236,145.575,47.64,92,36,9.75,scattered clouds
88,Mar Del Plata,AR,-38.0023,-57.5575,48.09,82,40,16.11,scattered clouds
89,Katsuura,JP,35.1333,140.3,68.14,84,100,7.02,overcast clouds
90,Nelson Bay,AU,-32.7167,152.15,49.08,78,0,15.64,clear sky
91,Alur,IN,12.9833,75.9833,67.93,91,100,10.13,overcast clouds
92,Busselton,AU,-33.65,115.3333,63.14,89,94,20.71,light rain
93,Cape Town,ZA,-33.9258,18.4232,66.38,45,0,3.0,clear sky
94,Bredasdorp,ZA,-34.5322,20.0403,58.68,51,100,3.71,overcast clouds
95,Bluff,NZ,-46.6,168.3333,39.79,95,100,13.62,light rain
96,Rikitea,PF,-23.1203,-134.9692,74.97,70,100,14.03,overcast clouds
97,Braganca,BR,-1.0536,-46.7656,81.0,81,66,4.68,broken clouds
98,Mar Del Plata,AR,-38.0023,-57.5575,48.09,82,40,16.11,scattered clouds
99,Faya,SA,18.3851,42.4509,79.32,14,0,10.49,clear sky
100,Wanaka,NZ,-44.7,169.15,30.09,90,15,5.35,snow
101,Airai,TL,-8.9266,125.4092,57.45,94,59,4.0,broken clouds
102,Mataura,NZ,-46.1927,168.8643,39.47,96,100,1.97,moderate rain
103,Petropavlovsk-Kamchatskiy,RU,53.0452,158.6483,39.79,100,100,2.24,mist
104,Ushuaia,AR,-54.8,-68.3,42.46,56,75,26.46,broken clouds
105,Geraldton,AU,-28.7667,114.6,63.01,94,40,10.36,scattered clouds
106,Bluff,NZ,-46.6,168.3333,39.79,95,100,13.62,light rain
107,Surt,LY,31.2089,16.5887,73.35,70,0,17.78,clear sky
108,New Norfolk,AU,-42.7826,147.0587,45.9,86,100,5.99,overcast clouds
109,Morros,BR,-9.4467,-46.3003,92.14,26,86,5.12,overcast clouds
110,Rio Grande,BR,-32.035,-52.0986,55.51,52,6,18.16,clear sky
111,Tuktoyaktuk,CA,69.4541,-133.0374,41.0,65,75,9.22,broken clouds
112,Atuona,PF,-9.8,-139.0333,77.38,72,7,14.9,light rain
113,Smithers,CA,54.7804,-127.1743,57.52,67,75,8.05,light intensity shower rain
114,Pathein,MM,16.7833,94.7333,78.8,90,100,6.55,overcast clouds
115,Verkhnetulomskiy,RU,68.6073,31.7962,53.73,65,96,2.39,overcast clouds
116,Havelock,US,34.8791,-76.9013,84.18,61,20,11.5,few clouds
117,Busselton,AU,-33.65,115.3333,63.14,89,94,20.71,light rain
118,Atikokan,CA,48.7555,-91.6216,73.65,21,10,7.67,clear sky
119,Busselton,AU,-33.65,115.3333,63.14,89,94,20.71,light rain
120,Lorengau,PG,-2.0226,147.2712,79.83,70,18,5.59,few clouds
121,Rikitea,PF,-23.1203,-134.9692,74.97,70,100,14.03,overcast clouds
122,Mataura,NZ,-46.1927,168.8643,39.47,96,100,1.97,moderate rain
123,Puerto Lopez,CO,4.0845,-72.956,86.92,61,72,8.59,broken clouds
124,Lompoc,US,34.6391,-120.4579,95.77,62,0,10.36,clear sky
125,Teresina,BR,-5.0892,-42.8019,89.31,55,75,4.61,broken clouds
126,Yellowknife,CA,62.456,-114.3525,70.32,46,75,10.36,broken clouds
127,Jamestown,US,42.097,-79.2353,70.05,40,20,12.66,few clouds
128,Hermanus,ZA,-34.4187,19.2345,64.94,40,33,9.33,scattered clouds
129,Dubna,RU,56.7333,37.1667,59.47,78,98,3.83,overcast clouds
130,Vysokogornyy,RU,50.1167,139.15,38.28,96,99,2.06,overcast clouds
131,Batemans Bay,AU,-35.7167,150.1833,47.1,86,4,4.32,clear sky
132,Kodiak,US,57.79,-152.4072,56.71,67,0,5.75,clear sky
133,Rikitea,PF,-23.1203,-134.9692,74.97,70,100,14.03,overcast clouds
134,Ancud,CL,-41.8697,-73.8203,47.73,62,75,5.95,broken clouds
135,Taunton,GB,51.0211,-3.1047,64.96,74,0,11.95,clear sky
136,Kaduy,RU,59.2,37.15,60.24,75,97,3.69,overcast clouds
137,Mataura,NZ,-46.1927,168.8643,39.47,96,100,1.97,moderate rain
138,Barrow,US,71.2906,-156.7887,30.22,93,100,11.5,overcast clouds
139,Oranjemund,NA,-28.55,16.4333,65.64,34,38,4.76,scattered clouds
140,Itoman,JP,26.1247,127.6694,80.98,94,75,21.85,broken clouds
141,Presidencia Roque Saenz Pena,AR,-26.7852,-60.4388,63.14,30,0,9.66,clear sky
142,Severo-Kurilsk,RU,50.6789,156.125,43.32,94,100,9.28,overcast clouds
143,Souillac,MU,-20.5167,57.5167,70.18,88,75,10.36,light rain
144,Norman Wells,CA,65.282,-126.8329,50.04,66,75,16.11,broken clouds
145,Mar Del Plata,AR,-38.0023,-57.5575,48.09,82,40,16.11,scattered clouds
146,Buraydah,SA,26.326,43.975,99.05,12,0,12.03,clear sky
147,Punta Arenas,CL,-53.15,-70.9167,41.11,70,75,18.41,broken clouds
148,Ouadda,CF,8.0777,22.4007,75.38,67,98,1.77,overcast clouds
149,Bengkulu,ID,-3.8004,102.2655,74.64,87,99,2.19,overcast clouds
150,Busselton,AU,-33.65,115.3333,63.14,89,94,20.71,light rain
151,Arraial Do Cabo,BR,-22.9661,-42.0278,78.76,69,75,3.44,broken clouds
152,Tasiilaq,GL,65.6145,-37.6368,42.96,72,80,5.88,broken clouds
153,Ust-Omchug,RU,61.15,149.6333,35.46,97,99,3.38,overcast clouds
154,Rikitea,PF,-23.1203,-134.9692,74.97,70,100,14.03,overcast clouds
155,Bethel,US,41.3712,-73.414,78.58,45,20,11.5,few clouds
156,Faya,SA,18.3851,42.4509,79.32,14,0,10.49,clear sky
157,Chake Chake,TZ,-5.2459,39.7666,76.64,78,75,10.45,broken clouds
158,Atuona,PF,-9.8,-139.0333,77.38,72,7,14.9,light rain
159,Takoradi,GH,4.8845,-1.7554,77.43,87,100,7.63,light rain
160,Hithadhoo,MV,-0.6,73.0833,84.54,69,43,11.83,scattered clouds
161,Chase,CA,50.8165,-119.6857,73.33,44,96,6.58,overcast clouds
162,Carnarvon,AU,-24.8667,113.6333,69.78,71,1,8.37,clear sky
163,Nantucket,US,41.2835,-70.0995,75.31,60,0,13.8,clear sky
164,Zhanakorgan,KZ,43.9098,67.2495,78.31,21,58,8.61,broken clouds
165,Santiago Del Estero,AR,-27.7951,-64.2615,61.7,25,74,2.64,broken clouds
166,Atuona,PF,-9.8,-139.0333,77.38,72,7,14.9,light rain
167,Sao Jose Da Coroa Grande,BR,-8.8978,-35.1478,79.88,79,19,3.67,few clouds
168,Mahebourg,MU,-20.4081,57.7,70.09,88,75,10.36,broken clouds
169,Kapaa,US,22.0752,-159.319,79.12,75,20,10.36,few clouds
170,Bandarbeyla,SO,9.4942,50.8122,80.37,72,14,28.86,few clouds
171,Provideniya,RU,64.3833,-173.3,47.64,35,100,8.86,overcast clouds
172,Kavieng,PG,-2.5744,150.7967,81.1,74,18,12.48,few clouds
173,Mildura,AU,-34.2,142.15,45.07,92,3,9.66,clear sky
174,Mataura,NZ,-46.1927,168.8643,39.47,96,100,1.97,moderate rain
175,Muswellbrook,AU,-32.2667,150.9,46.33,84,0,4.72,clear sky
176,Airai,TL,-8.9266,125.4092,57.45,94,59,4.0,broken clouds
177,Rikitea,PF,-23.1203,-134.9692,74.97,70,100,14.03,overcast clouds
178,Bethel,US,41.3712,-73.414,78.58,45,20,11.5,few clouds
179,Ushuaia,AR,-54.8,-68.3,42.46,56,75,26.46,broken clouds
180,Antofagasta,CL,-23.65,-70.4,67.21,54,86,6.93,overcast clouds
181,Nuuk,GL,64.1835,-51.7216,41.88,70,100,11.01,overcast clouds
182,Barrow,US,71.2906,-156.7887,30.22,93,100,11.5,overcast clouds
183,Busselton,AU,-33.65,115.3333,63.14,89,94,20.71,light rain
184,Ushuaia,AR,-54.8,-68.3,42.46,56,75,26.46,broken clouds
185,Tuktoyaktuk,CA,69.4541,-133.0374,41.0,65,75,9.22,broken clouds
186,Punta Arenas,CL,-53.15,-70.9167,41.11,70,75,18.41,broken clouds
187,Kodinsk,RU,58.6881,99.1844,53.38,62,4,1.59,clear sky
188,Dingzhou,CN,38.5131,114.9956,71.71,67,0,3.51,clear sky
189,Hobart,AU,-42.8794,147.3294,46.26,85,100,18.41,light rain
190,Yellowknife,CA,62.456,-114.3525,70.32,46,75,10.36,broken clouds
191,Rikitea,PF,-23.1203,-134.9692,74.97,70,100,14.03,overcast clouds
192,Mahebourg,MU,-20.4081,57.7,70.09,88,75,10.36,broken clouds
193,Saskylakh,RU,71.9167,114.0833,39.7,79,0,16.22,clear sky
194,Toktogul,KG,41.8708,72.9402,66.45,60,65,2.33,broken clouds
195,Paradise Valley,US,33.5312,-111.9427,107.28,19,0,6.91,clear sky
196,Placido De Castro,BR,-10.3353,-67.1856,72.18,97,100,6.82,moderate rain
197,Naruja,GE,41.9069,41.9542,68.32,91,6,2.98,clear sky
198,Bluff,NZ,-46.6,168.3333,39.79,95,100,13.62,light rain
199,Hailar,CN,49.2,119.7,53.62,80,15,8.1,few clouds
200,Jumla,NP,29.2747,82.1838,60.04,84,89,0.67,overcast clouds
201,Avera,US,33.194,-82.5271,87.39,30,99,3.36,overcast clouds
202,Sorland,NO,67.667,12.6934,46.26,76,0,16.28,clear sky
203,Jamestown,US,42.097,-79.2353,70.05,40,20,12.66,few clouds
204,Hermanus,ZA,-34.4187,19.2345,64.94,40,33,9.33,scattered clouds
205,Mataura,NZ,-46.1927,168.8643,39.47,96,100,1.97,moderate rain
206,Purranque,CL,-40.9167,-73.1667,47.28,58,99,2.17,overcast clouds
207,Faanui,PF,-16.4833,-151.75,80.24,75,9,18.97,clear sky
208,Cape Town,ZA,-33.9258,18.4232,66.38,45,0,3.0,clear sky
209,Yellowknife,CA,62.456,-114.3525,70.32,46,75,10.36,broken clouds
210,Rikitea,PF,-23.1203,-134.9692,74.97,70,100,14.03,overcast clouds
211,Yumen,CN,40.2833,97.2,64.89,13,100,12.91,overcast clouds
212,Hilo,US,19.7297,-155.09,80.26,73,0,4.0,clear sky
213,Takoradi,GH,4.8845,-1.7554,77.43,87,100,7.63,light rain
214,Saint-Philippe,RE,-21.3585,55.7679,65.79,81,66,11.03,light rain
215,Saint-Philippe,RE,-21.3585,55.7679,65.79,81,66,11.03,light rain
216,Kongolo,CD,-5.3833,27.0,74.14,52,5,2.86,clear sky
217,Ushuaia,AR,-54.8,-68.3,42.46,56,75,26.46,broken clouds
218,Faanui,PF,-16.4833,-151.75,80.24,75,9,18.97,clear sky
219,Barrow,US,71.2906,-156.7887,30.22,93,100,11.5,overcast clouds
220,Leningradskiy,RU,69.3833,178.4167,38.59,59,99,8.52,overcast clouds
221,Tuatapere,NZ,-46.1333,167.6833,38.1,92,100,5.01,overcast clouds
222,Punta Arenas,CL,-53.15,-70.9167,41.11,70,75,18.41,broken clouds
223,Dikson,RU,73.5069,80.5464,32.25,87,96,6.4,overcast clouds
224,Palmer,US,42.1584,-72.3287,77.52,44,75,12.66,broken clouds
225,Vila Franca Do Campo,PT,37.7167,-25.4333,70.21,86,98,5.35,overcast clouds
226,Rikitea,PF,-23.1203,-134.9692,74.97,70,100,14.03,overcast clouds
227,Barrow,US,71.2906,-156.7887,30.22,93,100,11.5,overcast clouds
228,Rikitea,PF,-23.1203,-134.9692,74.97,70,100,14.03,overcast clouds
229,Yellowknife,CA,62.456,-114.3525,70.32,46,75,10.36,broken clouds
230,Rocha,UY,-34.4833,-54.3333,47.66,59,50,17.09,scattered clouds
231,Praya,CV,14.9215,-23.5087,81.14,69,20,9.22,few clouds
232,Mahebourg,MU,-20.4081,57.7,70.09,88,75,10.36,broken clouds
233,Dikson,RU,73.5069,80.5464,32.25,87,96,6.4,overcast clouds
234,Komsomolskiy,UZ,40.4272,71.7189,72.32,53,16,6.91,few clouds
235,Rikitea,PF,-23.1203,-134.9692,74.97,70,100,14.03,overcast clouds
236,Ushuaia,AR,-54.8,-68.3,42.46,56,75,26.46,broken clouds
237,Terryville,US,40.909,-73.0651,79.56,47,75,15.99,broken clouds
238,Bezhanitsy,RU,56.9767,29.8907,63.54,80,100,4.36,overcast clouds
239,Georgetown,MY,5.4112,100.3354,80.53,93,20,1.14,few clouds
240,Severo-Kurilsk,RU,50.6789,156.125,43.32,94,100,9.28,overcast clouds
241,Mataura,NZ,-46.1927,168.8643,39.47,96,100,1.97,moderate rain
242,Albany,US,42.6001,-73.9662,74.03,49,6,1.01,clear sky
243,Port Elizabeth,ZA,-33.918,25.5701,59.29,100,0,3.44,clear sky
244,Punalur,IN,9.0,76.9333,75.54,94,100,1.61,overcast clouds
245,Atuona,PF,-9.8,-139.0333,77.38,72,7,14.9,light rain
246,Mbinga,TZ,-10.9333,35.0167,55.29,89,81,2.19,broken clouds
247,Hobart,AU,-42.8794,147.3294,46.26,85,100,18.41,light rain
248,Lorengau,PG,-2.0226,147.2712,79.83,70,18,5.59,few clouds
249,Luganville,VU,-15.5333,167.1667,77.4,88,100,4.54,overcast clouds
250,Punta Arenas,CL,-53.15,-70.9167,41.11,70,75,18.41,broken clouds
251,Zeya,RU,53.75,127.2667,54.68,55,3,2.68,clear sky
252,Ardalstangen,NO,61.2371,7.6983,64.89,61,26,5.06,scattered clouds
253,Thompson,CA,55.7435,-97.8558,69.96,32,20,3.44,few clouds
254,Bredasdorp,ZA,-34.5322,20.0403,58.68,51,100,3.71,overcast clouds
255,Bluff,NZ,-46.6,168.3333,39.79,95,100,13.62,light rain
256,Kapaa,US,22.0752,-159.319,79.12,75,20,10.36,few clouds
257,Kitimat,CA,54.0524,-128.6534,55.78,26,100,1.99,light rain
258,Rikitea,PF,-23.1203,-134.9692,74.97,70,100,14.03,overcast clouds
259,Kapaa,US,22.0752,-159.319,79.12,75,20,10.36,few clouds
260,Cabedelo,BR,-6.9811,-34.8339,84.87,78,10,7.58,clear sky
261,Mataura,NZ,-46.1927,168.8643,39.47,96,100,1.97,moderate rain
262,Victoria,HK,22.2855,114.1577,80.96,92,100,11.01,overcast clouds
263,Clyde River,CA,70.4692,-68.5914,34.03,93,100,10.36,overcast clouds
264,Trincomalee,LK,8.5711,81.2335,81.52,74,100,21.14,overcast clouds
265,Palmerston,AU,-12.486,130.9833,67.98,38,100,9.22,overcast clouds
266,Ibate,BR,-21.9547,-47.9967,66.54,85,98,8.48,overcast clouds
267,Shimanovsk,RU,52.0,127.7,56.62,80,15,5.32,few clouds
268,Sjenica,RS,43.2731,19.9994,53.83,98,65,5.77,broken clouds
269,Ponta Do Sol,PT,32.6667,-17.1,76.71,71,0,3.94,clear sky
270,Sinnamary,GF,5.3833,-52.95,82.42,75,87,8.05,overcast clouds
271,Hobart,AU,-42.8794,147.3294,46.26,85,100,18.41,light rain
272,Ekhabi,RU,53.5102,142.9671,36.3,97,73,12.28,broken clouds
273,Port Alfred,ZA,-33.5906,26.891,58.17,87,0,11.39,clear sky
274,Kapaa,US,22.0752,-159.319,79.12,75,20,10.36,few clouds
275,Rikitea,PF,-23.1203,-134.9692,74.97,70,100,14.03,overcast clouds
276,Rincon,US,32.296,-81.2354,90.86,50,75,9.22,broken clouds
277,Petropavlovsk-Kamchatskiy,RU,53.0452,158.6483,39.79,100,100,2.24,mist
278,Puerto Ayora,EC,-0.7393,-90.3518,80.56,69,0,11.39,clear sky
279,Ribeira Grande,PT,38.5167,-28.7,64.8,94,75,4.61,broken clouds
280,Aktash,RU,50.3,87.7333,48.69,42,6,3.62,clear sky
281,Ikom,NG,5.9667,8.7063,77.41,91,100,3.27,overcast clouds
282,Ostrovnoy,RU,68.0531,39.5131,43.61,73,16,6.38,few clouds
283,Iquitos,PE,-3.7481,-73.2472,75.24,94,100,4.61,heavy intensity rain
284,Natal,BR,-5.795,-35.2094,86.22,70,40,10.36,scattered clouds
285,Port Alfred,ZA,-33.5906,26.891,58.17,87,0,11.39,clear sky
286,Los Llanos De Aridane,ES,28.6585,-17.9182,72.12,85,0,14.97,clear sky
287,Ostrovnoy,RU,68.0531,39.5131,43.61,73,16,6.38,few clouds
288,Tasiilaq,GL,65.6145,-37.6368,42.96,72,80,5.88,broken clouds
289,Hermanus,ZA,-34.4187,19.2345,64.94,40,33,9.33,scattered clouds
290,Manyana,BW,-23.4,21.7167,53.35,21,0,7.16,clear sky
291,Ushuaia,AR,-54.8,-68.3,42.46,56,75,26.46,broken clouds
292,Tiksi,RU,71.6872,128.8694,39.0,78,3,4.97,clear sky
293,Esperance,AU,-33.8667,121.9,56.44,59,96,16.73,overcast clouds
294,Don Benito,ES,38.9563,-5.8616,93.27,23,91,4.72,overcast clouds
295,Lorengau,PG,-2.0226,147.2712,79.83,70,18,5.59,few clouds
296,Salalah,OM,17.0151,54.0924,86.09,79,75,8.05,broken clouds
297,Albany,US,42.6001,-73.9662,74.03,49,6,1.01,clear sky
298,Vaini,TO,-21.2,-175.2,69.96,94,75,4.61,broken clouds
299,Nykoping,SE,58.753,17.0079,64.69,72,40,13.8,scattered clouds
300,Hobart,AU,-42.8794,147.3294,46.26,85,100,18.41,light rain
301,Chuy,UY,-33.6971,-53.4616,51.03,50,12,14.74,few clouds
302,Mataura,NZ,-46.1927,168.8643,39.47,96,100,1.97,moderate rain
303,Hobart,AU,-42.8794,147.3294,46.26,85,100,18.41,light rain
304,Kaitangata,NZ,-46.2817,169.8464,36.88,90,29,4.65,scattered clouds
305,Bathsheba,BB,13.2167,-59.5167,81.21,83,75,25.32,broken clouds
306,Korla,CN,41.7597,86.1469,80.04,23,43,12.57,scattered clouds
307,Ponta Do Sol,PT,32.6667,-17.1,76.71,71,0,3.94,clear sky
308,Karratha,AU,-20.7377,116.8463,72.1,86,0,7.0,clear sky
309,Chuy,UY,-33.6971,-53.4616,51.03,50,12,14.74,few clouds
310,Monte Patria,CL,-30.6919,-70.9467,77.52,10,73,4.25,broken clouds
311,Rikitea,PF,-23.1203,-134.9692,74.97,70,100,14.03,overcast clouds
312,Balyaga,RU,51.1507,108.921,45.61,98,100,3.74,overcast clouds
313,Jamestown,US,42.097,-79.2353,70.05,40,20,12.66,few clouds
314,San Patricio,US,28.017,-97.5169,97.52,40,9,18.41,clear sky
315,Carnarvon,AU,-24.8667,113.6333,69.78,71,1,8.37,clear sky
316,Siguiri,GN,11.6667,-9.5,87.64,36,97,4.63,overcast clouds
317,Hargeysa,SO,9.56,44.065,71.46,62,76,20.51,broken clouds
318,Dubbo,AU,-32.25,148.6167,46.53,93,100,10.36,overcast clouds
319,Cidreira,BR,-30.1811,-50.2056,55.42,64,58,20.42,broken clouds
320,Arona,ES,28.0996,-16.681,70.32,66,0,14.97,clear sky
321,Busselton,AU,-33.65,115.3333,63.14,89,94,20.71,light rain
322,Port Alfred,ZA,-33.5906,26.891,58.17,87,0,11.39,clear sky
323,Huadian,CN,42.9633,126.7478,54.45,92,100,1.99,overcast clouds
324,Hithadhoo,MV,-0.6,73.0833,84.54,69,43,11.83,scattered clouds
325,Hobart,AU,-42.8794,147.3294,46.26,85,100,18.41,light rain
326,Wanning,CN,18.8003,110.3967,81.79,85,98,10.56,overcast clouds
327,Port Hardy,CA,50.6996,-127.4199,57.38,82,75,5.75,broken clouds
328,Hobart,AU,-42.8794,147.3294,46.26,85,100,18.41,light rain
329,Iqaluit,CA,63.7506,-68.5145,51.53,57,20,16.11,few clouds
330,Los Llanos De Aridane,ES,28.6585,-17.9182,72.12,85,0,14.97,clear sky
331,Senno,RU,59.5336,33.9167,57.81,73,100,3.0,overcast clouds
332,College,US,64.8569,-147.8028,54.21,65,100,6.91,overcast clouds
333,Asau,RO,46.4333,26.4,68.92,89,60,4.29,broken clouds
334,Vaini,TO,-21.2,-175.2,69.96,94,75,4.61,broken clouds
335,Mount Gambier,AU,-37.8333,140.7667,50.45,68,100,8.16,overcast clouds
336,Richards Bay,ZA,-28.783,32.0377,64.04,85,11,4.47,few clouds
337,Kununurra,AU,-15.7667,128.7333,64.38,34,23,9.22,few clouds
338,Hamilton,US,39.1834,-84.5333,75.88,66,0,6.91,light rain
339,Havre-Saint-Pierre,CA,50.2334,-63.5986,52.16,93,100,11.5,mist
340,Kondinskoye,RU,59.6481,67.41,54.46,88,97,4.79,overcast clouds
341,Vaini,TO,-21.2,-175.2,69.96,94,75,4.61,broken clouds
342,Mezen,RU,65.8522,44.24,40.14,82,0,10.56,clear sky
343,Vaini,TO,-21.2,-175.2,69.96,94,75,4.61,broken clouds
344,Katangli,RU,51.7102,143.2326,37.54,96,37,11.23,scattered clouds
345,Namibe,AO,-15.1961,12.1522,71.83,68,0,3.09,clear sky
346,Buraydah,SA,26.326,43.975,99.05,12,0,12.03,clear sky
347,Kapaa,US,22.0752,-159.319,79.12,75,20,10.36,few clouds
348,Luocheng,CN,29.3848,104.0286,65.73,97,100,2.55,overcast clouds
349,Sambava,MG,-14.2667,50.1667,72.73,78,94,10.27,overcast clouds
350,Ribeira Grande,PT,38.5167,-28.7,64.8,94,75,4.61,broken clouds
351,Geraldton,AU,-28.7667,114.6,63.01,94,40,10.36,scattered clouds
352,Saskylakh,RU,71.9167,114.0833,39.7,79,0,16.22,clear sky
353,Kempsey,AU,-31.0833,152.8333,38.95,89,0,1.99,clear sky
354,Kapaa,US,22.0752,-159.319,79.12,75,20,10.36,few clouds
355,Surt,LY,31.2089,16.5887,73.35,70,0,17.78,clear sky
356,Longyearbyen,SJ,78.2186,15.6401,37.24,81,100,3.44,overcast clouds
357,Hilo,US,19.7297,-155.09,80.26,73,0,4.0,clear sky
358,Hobart,AU,-42.8794,147.3294,46.26,85,100,18.41,light rain
359,Atuona,PF,-9.8,-139.0333,77.38,72,7,14.9,light rain
360,Kargasok,RU,59.0556,80.8572,62.96,61,100,7.43,overcast clouds
361,Kapaa,US,22.0752,-159.319,79.12,75,20,10.36,few clouds
362,Tuktoyaktuk,CA,69.4541,-133.0374,41.0,65,75,9.22,broken clouds
363,Cherskiy,RU,68.75,161.3,64.65,36,64,15.7,broken clouds
364,Punta Arenas,CL,-53.15,-70.9167,41.11,70,75,18.41,broken clouds
365,Itarema,BR,-2.9248,-39.9167,80.91,81,36,11.86,scattered clouds
366,Siirt,TR,37.9326,41.9403,75.92,33,23,2.48,few clouds
367,Atuona,PF,-9.8,-139.0333,77.38,72,7,14.9,light rain
368,Bambous Virieux,MU,-20.3428,57.7575,70.05,88,75,10.36,light rain
369,Mataura,NZ,-46.1927,168.8643,39.47,96,100,1.97,moderate rain
370,Todos Santos,MX,23.45,-110.2167,73.42,68,7,7.36,clear sky
371,Ushuaia,AR,-54.8,-68.3,42.46,56,75,26.46,broken clouds
372,Nikolskoye,RU,59.7035,30.7861,62.49,78,100,3.53,overcast clouds
373,Rikitea,PF,-23.1203,-134.9692,74.97,70,100,14.03,overcast clouds
374,Mataura,NZ,-46.1927,168.8643,39.47,96,100,1.97,moderate rain
375,Cape Town,ZA,-33.9258,18.4232,66.38,45,0,3.0,clear sky
376,Mataura,NZ,-46.1927,168.8643,39.47,96,100,1.97,moderate rain
377,Pangnirtung,CA,66.1451,-65.7125,39.2,81,75,11.5,broken clouds
378,Bambanglipuro,ID,-7.95,110.2833,76.05,93,100,3.02,overcast clouds
379,Bilma,NE,18.6853,12.9164,97.83,16,79,8.81,broken clouds
380,Tuktoyaktuk,CA,69.4541,-133.0374,41.0,65,75,9.22,broken clouds
381,Clyde River,CA,70.4692,-68.5914,34.03,93,100,10.36,overcast clouds
382,Dunedin,NZ,-45.8742,170.5036,39.79,65,57,1.99,broken clouds
383,Mataura,NZ,-46.1927,168.8643,39.47,96,100,1.97,moderate rain
384,Kimbe,PG,-5.5502,150.1429,74.48,94,14,2.84,few clouds
385,Fairbanks,US,64.8378,-147.7164,54.23,65,75,6.91,broken clouds
386,Rikitea,PF,-23.1203,-134.9692,74.97,70,100,14.03,overcast clouds
387,Broome,US,42.2506,-75.833,72.7,51,20,14.97,few clouds
388,Pundaguitan,PH,6.3711,126.1689,82.92,72,98,3.87,overcast clouds
389,Balkanabat,TM,39.5108,54.3671,75.42,56,0,7.36,clear sky
390,Hermanus,ZA,-34.4187,19.2345,64.94,40,33,9.33,scattered clouds
391,Alofi,NU,-19.0595,-169.9187,73.29,83,82,8.05,broken clouds
392,Shenjiamen,CN,29.9576,122.298,69.19,86,100,15.43,moderate rain
393,Vaini,TO,-21.2,-175.2,69.96,94,75,4.61,broken clouds
394,Tsumeb,NA,-19.2333,17.7167,58.46,31,0,8.05,clear sky
395,Cidreira,BR,-30.1811,-50.2056,55.42,64,58,20.42,broken clouds
396,Williams Lake,CA,52.1415,-122.1445,72.05,44,75,8.05,broken clouds
397,Mataura,NZ,-46.1927,168.8643,39.47,96,100,1.97,moderate rain
398,Busselton,AU,-33.65,115.3333,63.14,89,94,20.71,light rain
399,Tasiilaq,GL,65.6145,-37.6368,42.96,72,80,5.88,broken clouds
400,Busselton,AU,-33.65,115.3333,63.14,89,94,20.71,light rain
401,Castro,BR,-24.7911,-50.0119,60.17,84,100,5.66,overcast clouds
402,Cockburn Town,TC,21.4612,-71.1419,85.96,62,40,13.8,scattered clouds
403,Constitucion,CL,-35.3333,-72.4167,60.17,45,0,8.14,clear sky
404,New Norfolk,AU,-42.7826,147.0587,45.9,86,100,5.99,overcast clouds
405,Dok Kham Tai,TH,19.1624,99.9934,72.9,96,100,3.96,overcast clouds
406,San Patricio,US,28.017,-97.5169,97.52,40,9,18.41,clear sky
407,Atuona,PF,-9.8,-139.0333,77.38,72,7,14.9,light rain
408,Cape Town,ZA,-33.9258,18.4232,66.38,45,0,3.0,clear sky
409,Asosa,ET,10.0667,34.5333,63.07,85,100,3.89,light rain
410,Puerto Ayora,EC,-0.7393,-90.3518,80.56,69,0,11.39,clear sky
411,Castro,BR,-24.7911,-50.0119,60.17,84,100,5.66,overcast clouds
412,Punta Arenas,CL,-53.15,-70.9167,41.11,70,75,18.41,broken clouds
413,Ribeira Grande,PT,38.5167,-28.7,64.8,94,75,4.61,broken clouds
414,Albany,US,42.6001,-73.9662,74.03,49,6,1.01,clear sky
415,Barrow,US,71.2906,-156.7887,30.22,93,100,11.5,overcast clouds
416,Bocas Del Toro,PA,9.3333,-82.25,82.58,74,84,7.99,broken clouds
417,Lebu,CL,-37.6167,-73.65,53.98,61,6,12.71,clear sky
418,Pevek,RU,69.7008,170.3133,43.14,64,100,3.58,overcast clouds
419,Zalantun,CN,48.0,122.7167,55.67,90,59,4.03,broken clouds
420,Kondinskoye,RU,59.6481,67.41,54.46,88,97,4.79,overcast clouds
421,Jalu,LY,29.0331,21.5482,86.58,34,6,18.79,clear sky
422,Punta Arenas,CL,-53.15,-70.9167,41.11,70,75,18.41,broken clouds
423,Hobart,AU,-42.8794,147.3294,46.26,85,100,18.41,light rain
424,Aklavik,CA,68.2191,-135.0107,49.21,55,100,5.01,overcast clouds
425,Tiksi,RU,71.6872,128.8694,39.0,78,3,4.97,clear sky
426,Tiksi,RU,71.6872,128.8694,39.0,78,3,4.97,clear sky
427,Albany,US,42.6001,-73.9662,74.03,49,6,1.01,clear sky
428,Ushuaia,AR,-54.8,-68.3,42.46,56,75,26.46,broken clouds
429,Carnarvon,AU,-24.8667,113.6333,69.78,71,1,8.37,clear sky
430,New Norfolk,AU,-42.7826,147.0587,45.9,86,100,5.99,overcast clouds
431,Cape Town,ZA,-33.9258,18.4232,66.38,45,0,3.0,clear sky
432,Dunedin,NZ,-45.8742,170.5036,39.79,65,57,1.99,broken clouds
433,Ushuaia,AR,-54.8,-68.3,42.46,56,75,26.46,broken clouds
434,Anahuac,MX,27.2333,-100.15,99.03,33,4,13.24,clear sky
435,Lasa,IT,46.6166,10.7002,63.48,80,13,5.61,few clouds
436,Coahuayana,MX,18.7333,-103.6833,85.32,65,100,5.64,overcast clouds
437,Iqaluit,CA,63.7506,-68.5145,51.53,57,20,16.11,few clouds
438,Tasiilaq,GL,65.6145,-37.6368,42.96,72,80,5.88,broken clouds
439,Kaitangata,NZ,-46.2817,169.8464,36.88,90,29,4.65,scattered clouds
440,Avarua,CK,-21.2078,-159.775,75.25,60,72,5.75,broken clouds
441,Cabo San Lucas,MX,22.8909,-109.9124,91.62,67,13,10.63,few clouds
442,Nha Trang,VN,12.25,109.1833,82.4,83,100,5.12,overcast clouds
443,Belyy Yar,RU,53.6039,91.3903,57.09,54,0,0.0,clear sky
444,Slave Lake,CA,55.2834,-114.769,57.18,82,100,9.22,overcast clouds
445,Butaritari,KI,3.0707,172.7902,82.11,74,95,13.87,light rain
446,Kruisfontein,ZA,-34.0033,24.7314,59.49,46,0,7.16,clear sky
447,Hobart,AU,-42.8794,147.3294,46.26,85,100,18.41,light rain
448,Norman Wells,CA,65.282,-126.8329,50.04,66,75,16.11,broken clouds
449,Mount Gambier,AU,-37.8333,140.7667,50.45,68,100,8.16,overcast clouds
450,Kavaratti,IN,10.5669,72.642,83.08,78,100,12.62,overcast clouds
451,Bang Saphan,TH,11.2126,99.5117,77.79,90,100,4.27,overcast clouds
452,Rikitea,PF,-23.1203,-134.9692,74.97,70,100,14.03,overcast clouds
453,Provideniya,RU,64.3833,-173.3,47.64,35,100,8.86,overcast clouds
454,Kavieng,PG,-2.5744,150.7967,81.1,74,18,12.48,few clouds
455,Atuona,PF,-9.8,-139.0333,77.38,72,7,14.9,light rain
456,Avarua,CK,-21.2078,-159.775,75.25,60,72,5.75,broken clouds
457,Rosario,AR,-32.9468,-60.6393,57.94,26,0,11.5,clear sky
458,Punta Arenas,CL,-53.15,-70.9167,41.11,70,75,18.41,broken clouds
459,Ushuaia,AR,-54.8,-68.3,42.46,56,75,26.46,broken clouds
460,Rikitea,PF,-23.1203,-134.9692,74.97,70,100,14.03,overcast clouds
461,Jalu,LY,29.0331,21.5482,86.58,34,6,18.79,clear sky
462,Mataura,NZ,-46.1927,168.8643,39.47,96,100,1.97,moderate rain
463,Punta Arenas,CL,-53.15,-70.9167,41.11,70,75,18.41,broken clouds
464,Huangnihe,CN,43.5583,128.0239,50.27,95,36,2.26,scattered clouds
465,Ontario,US,34.0633,-117.6509,105.87,45,20,12.66,few clouds
466,Rikitea,PF,-23.1203,-134.9692,74.97,70,100,14.03,overcast clouds
467,Bluff,NZ,-46.6,168.3333,39.79,95,100,13.62,light rain
468,Puerto Ayora,EC,-0.7393,-90.3518,80.56,69,0,11.39,clear sky
469,Lanivtsi,UA,49.8633,26.0908,63.54,87,72,5.61,broken clouds
470,Hermanus,ZA,-34.4187,19.2345,64.94,40,33,9.33,scattered clouds
471,General Roca,AR,-39.0333,-67.5833,55.24,25,0,10.78,clear sky
472,Hobart,AU,-42.8794,147.3294,46.26,85,100,18.41,light rain
473,Hachinohe,JP,40.5,141.5,53.83,98,92,0.54,overcast clouds
474,Vaini,TO,-21.2,-175.2,69.96,94,75,4.61,broken clouds
475,Bredasdorp,ZA,-34.5322,20.0403,58.68,51,100,3.71,overcast clouds
476,Walvis Bay,NA,-22.9575,14.5053,79.75,18,0,0.0,clear sky
477,Ushuaia,AR,-54.8,-68.3,42.46,56,75,26.46,broken clouds
478,Gat,IL,31.61,34.7642,82.4,45,0,8.37,clear sky
479,Ushuaia,AR,-54.8,-68.3,42.46,56,75,26.46,broken clouds
480,Butaritari,KI,3.0707,172.7902,82.11,74,95,13.87,light rain
481,Codrington,AU,-38.2667,141.9667,51.64,66,100,15.5,overcast clouds
482,Elliot,ZA,-31.3333,27.85,47.1,42,0,6.69,clear sky
483,Bredasdorp,ZA,-34.5322,20.0403,58.68,51,100,3.71,overcast clouds
484,Bluff,NZ,-46.6,168.3333,39.79,95,100,13.62,light rain
485,Iquitos,PE,-3.7481,-73.2472,75.24,94,100,4.61,heavy intensity rain
486,Rikitea,PF,-23.1203,-134.9692,74.97,70,100,14.03,overcast clouds
487,Airai,TL,-8.9266,125.4092,57.45,94,59,4.0,broken clouds
488,Punta Arenas,CL,-53.15,-70.9167,41.11,70,75,18.41,broken clouds
489,Yerbogachen,RU,61.2767,108.0108,49.08,91,14,5.21,few clouds
490,Nyurba,RU,63.2842,118.3319,49.57,82,82,4.59,broken clouds
491,Atuona,PF,-9.8,-139.0333,77.38,72,7,14.9,light rain
492,Albany,US,42.6001,-73.9662,74.03,49,6,1.01,clear sky
493,Tual,ID,-5.6667,132.75,82.36,78,64,17.34,broken clouds
494,Provideniya,RU,64.3833,-173.3,47.64,35,100,8.86,overcast clouds
495,Atuona,PF,-9.8,-139.0333,77.38,72,7,14.9,light rain
496,Conway,US,35.0887,-92.4421,77.79,76,40,8.05,scattered clouds
497,Busselton,AU,-33.65,115.3333,63.14,89,94,20.71,light rain
498,Mattru,SL,7.6244,-11.8332,76.6,93,100,4.59,light rain
499,Avarua,CK,-21.2078,-159.775,75.25,60,72,5.75,broken clouds
500,Broken Hill,AU,-31.95,141.4333,47.07,92,25,9.57,scattered clouds
501,Jamestown,US,42.097,-79.2353,70.05,40,20,12.66,few clouds
502,San Narciso,PH,15.0143,120.0803,78.8,77,100,5.28,overcast clouds
503,Sambava,MG,-14.2667,50.1667,72.73,78,94,10.27,overcast clouds
504,Sur,OM,22.5667,59.5289,93.09,49,0,11.1,clear sky
505,Avera,US,33.194,-82.5271,87.39,30,99,3.36,overcast clouds
506,Saskylakh,RU,71.9167,114.0833,39.7,79,0,16.22,clear sky
507,Port Elizabeth,ZA,-33.918,25.5701,59.29,100,0,3.44,clear sky
508,Ribeira Grande,PT,38.5167,-28.7,64.8,94,75,4.61,broken clouds
509,Mar Del Plata,AR,-38.0023,-57.5575,48.09,82,40,16.11,scattered clouds
510,Broome,US,42.2506,-75.833,72.7,51,20,14.97,few clouds
511,Talnakh,RU,69.4865,88.3972,49.21,56,13,7.58,few clouds
512,Ahipara,NZ,-35.1667,173.1667,59.61,89,14,17.36,light rain
513,Salisbury,GB,51.0693,-1.7957,65.17,64,20,17.27,few clouds
514,Nikolskoye,RU,59.7035,30.7861,62.49,78,100,3.53,overcast clouds
515,Longyan,CN,25.1072,117.0225,73.47,99,100,3.0,overcast clouds
516,Alyangula,AU,-13.8483,136.4192,71.06,60,100,15.17,overcast clouds
517,Husavik,IS,66.0449,-17.3389,42.42,95,100,8.05,overcast clouds
518,Kapaa,US,22.0752,-159.319,79.12,75,20,10.36,few clouds
519,Rikitea,PF,-23.1203,-134.9692,74.97,70,100,14.03,overcast clouds
520,Punta Arenas,CL,-53.15,-70.9167,41.11,70,75,18.41,broken clouds
521,Huron,US,41.1501,-82.5499,74.79,46,100,6.64,overcast clouds
522,Port Alfred,ZA,-33.5906,26.891,58.17,87,0,11.39,clear sky
523,Georgetown,MY,5.4112,100.3354,80.53,93,20,1.14,few clouds
524,Bluff,NZ,-46.6,168.3333,39.79,95,100,13.62,light rain
525,Bluff,NZ,-46.6,168.3333,39.79,95,100,13.62,light rain
526,Torrington,US,41.8007,-73.1212,77.68,51,44,5.99,scattered clouds
527,Punta Arenas,CL,-53.15,-70.9167,41.11,70,75,18.41,broken clouds
528,Motygino,RU,58.1831,94.7592,52.11,74,35,3.49,scattered clouds
529,Jamestown,US,42.097,-79.2353,70.05,40,20,12.66,few clouds
530,Hithadhoo,MV,-0.6,73.0833,84.54,69,43,11.83,scattered clouds
531,Alice Springs,AU,-23.7,133.8833,36.95,93,97,0.0,overcast clouds
532,Lebu,CL,-37.6167,-73.65,53.98,61,6,12.71,clear sky
533,Kulhudhuffushi,MV,6.6221,73.07,82.38,77,53,11.23,broken clouds
534,Vanavara,RU,60.34,102.2797,53.91,66,80,0.85,broken clouds
535,Rio Grande,BR,-32.035,-52.0986,55.51,52,6,18.16,clear sky
536,Qaanaaq,GL,77.484,-69.3632,31.24,85,100,4.9,overcast clouds
537,Torbay,CA,47.6666,-52.7314,62.28,96,100,14.97,light rain
538,Punta Arenas,CL,-53.15,-70.9167,41.11,70,75,18.41,broken clouds
539,Tual,ID,-5.6667,132.75,82.36,78,64,17.34,broken clouds
540,Rawson,AR,-43.3002,-65.1023,48.99,31,35,8.21,scattered clouds
541,Narsaq,GL,60.9167,-46.05,61.02,54,100,3.98,overcast clouds
542,Praia,CV,14.9215,-23.5087,81.14,69,20,9.22,few clouds
543,Knoxville,US,35.9606,-83.9207,82.29,47,0,6.91,clear sky
544,Tiksi,RU,71.6872,128.8694,39.0,78,3,4.97,clear sky
545,Rio Grande,BR,-32.035,-52.0986,55.51,52,6,18.16,clear sky
546,Lima,PE,-12.0432,-77.0282,61.05,82,100,6.91,overcast clouds
547,Rikitea,PF,-23.1203,-134.9692,74.97,70,100,14.03,overcast clouds
548,Mataura,NZ,-46.1927,168.8643,39.47,96,100,1.97,moderate rain
549,Khatanga,RU,71.9667,102.5,40.14,77,100,8.32,overcast clouds
550,Portland,US,45.5234,-122.6762,68.97,83,100,5.99,overcast clouds
551,Cherskiy,RU,68.75,161.3,64.65,36,64,15.7,broken clouds
552,Tuktoyaktuk,CA,69.4541,-133.0374,41.0,65,75,9.22,broken clouds
553,Namibe,AO,-15.1961,12.1522,71.83,68,0,3.09,clear sky
554,Sao Joao Da Barra,BR,-21.6403,-41.0511,86.09,68,25,8.79,scattered clouds
555,Huai Thalaeng,TH,14.997,102.6475,78.26,79,100,8.95,overcast clouds
556,Ballina,AU,-28.8667,153.5667,46.27,81,0,8.37,clear sky
557,Busselton,AU,-33.65,115.3333,63.14,89,94,20.71,light rain
558,Asuncion,PY,-25.3007,-57.6359,62.04,63,75,16.11,broken clouds
559,Norman Wells,CA,65.282,-126.8329,50.04,66,75,16.11,broken clouds
560,Saint George,US,37.1041,-113.5841,102.63,15,0,3.44,clear sky
561,Rikitea,PF,-23.1203,-134.9692,74.97,70,100,14.03,overcast clouds
562,Punta Arenas,CL,-53.15,-70.9167,41.11,70,75,18.41,broken clouds
563,Georgetown,MY,5.4112,100.3354,80.53,93,20,1.14,few clouds
564,Vaini,TO,-21.2,-175.2,69.96,94,75,4.61,broken clouds
565,Roblin,CA,51.23,-101.3565,62.87,74,100,12.75,overcast clouds
566,Rikitea,PF,-23.1203,-134.9692,74.97,70,100,14.03,overcast clouds
567,Acajutla,SV,13.5928,-89.8275,83.75,69,100,7.29,overcast clouds
568,Rikitea,PF,-23.1203,-134.9692,74.97,70,100,14.03,overcast clouds
569,Mataura,NZ,-46.1927,168.8643,39.47,96,100,1.97,moderate rain
570,Punta Arenas,CL,-53.15,-70.9167,41.11,70,75,18.41,broken clouds
571,Hobyo,SO,5.3505,48.5268,79.45,78,29,25.28,scattered clouds
572,Kholtoson,RU,50.2981,103.3097,39.99,99,100,3.62,overcast clouds
573,Talnakh,RU,69.4865,88.3972,49.21,56,13,7.58,few clouds
574,Itoman,JP,26.1247,127.6694,80.98,94,75,21.85,broken clouds
575,Tasiilaq,GL,65.6145,-37.6368,42.96,72,80,5.88,broken clouds
576,Jamestown,US,42.097,-79.2353,70.05,40,20,12.66,few clouds
577,Menongue,AO,-14.6585,17.691,54.57,56,0,4.56,clear sky
578,Kaitangata,NZ,-46.2817,169.8464,36.88,90,29,4.65,scattered clouds
579,Ternate,ID,0.8,127.4,79.79,81,100,4.23,overcast clouds
580,Ayagoz,KZ,47.9714,80.4392,70.14,35,34,8.34,scattered clouds
581,Albany,US,42.6001,-73.9662,74.03,49,6,1.01,clear sky
582,Shepetivka,UA,50.1855,27.0637,67.19,73,72,1.59,broken clouds
583,Aklavik,CA,68.2191,-135.0107,49.21,55,100,5.01,overcast clouds
584,Hobart,AU,-42.8794,147.3294,46.26,85,100,18.41,light rain
585,Severo-Kurilsk,RU,50.6789,156.125,43.32,94,100,9.28,overcast clouds
586,Hilo,US,19.7297,-155.09,80.26,73,0,4.0,clear sky
587,Busselton,AU,-33.65,115.3333,63.14,89,94,20.71,light rain
588,Gara,HU,46.0319,19.0428,64.15,81,100,14.34,light rain
589,Avarua,CK,-21.2078,-159.775,75.25,60,72,5.75,broken clouds
590,Port Elizabeth,ZA,-33.918,25.5701,59.29,100,0,3.44,clear sky
591,New Norfolk,AU,-42.7826,147.0587,45.9,86,100,5.99,overcast clouds
592,Micheweni,TZ,-4.9667,39.8333,77.88,79,70,12.66,broken clouds
593,Busselton,AU,-33.65,115.3333,63.14,89,94,20.71,light rain
594,Hailey,US,43.5196,-114.3153,78.89,48,75,10.0,broken clouds
595,Sao Filipe,CV,14.8961,-24.4956,74.57,82,1,10.2,clear sky
596,Cape Town,ZA,-33.9258,18.4232,66.38,45,0,3.0,clear sky
597,Leningradskiy,RU,69.3833,178.4167,38.59,59,99,8.52,overcast clouds
598,Punta Arenas,CL,-53.15,-70.9167,41.11,70,75,18.41,broken clouds
599,Rabat,MA,33.9911,-6.8401,85.05,80,75,5.75,broken clouds
600,Yellowknife,CA,62.456,-114.3525,70.32,46,75,10.36,broken clouds
601,Enid,US,36.3956,-97.8784,92.01,44,0,16.11,clear sky
602,Nyurba,RU,63.2842,118.3319,49.57,82,82,4.59,broken clouds
603,Mar Del Plata,AR,-38.0023,-57.5575,48.09,82,40,16.11,scattered clouds
604,Pevek,RU,69.7008,170.3133,43.14,64,100,3.58,overcast clouds
605,Barrow,US,71.2906,-156.7887,30.22,93,100,11.5,overcast clouds
606,Albany,US,42.6001,-73.9662,74.03,49,6,1.01,clear sky
607,Arraial Do Cabo,BR,-22.9661,-42.0278,78.76,69,75,3.44,broken clouds
608,Shache,CN,38.4167,77.2406,77.72,23,100,6.64,overcast clouds
609,Viedma,AR,-40.8135,-62.9967,50.47,29,0,12.68,clear sky
610,Punta Arenas,CL,-53.15,-70.9167,41.11,70,75,18.41,broken clouds
611,Oranjemund,NA,-28.55,16.4333,65.64,34,38,4.76,scattered clouds
612,Morondava,MG,-20.2833,44.2833,72.7,78,0,9.06,clear sky
613,Butaritari,KI,3.0707,172.7902,82.11,74,95,13.87,light rain
614,Belawan,ID,3.7755,98.6832,77.29,87,78,5.26,light rain
615,East London,ZA,-33.0153,27.9116,59.94,88,0,6.91,clear sky
616,West Plains,US,36.7281,-91.8524,78.91,68,0,9.22,clear sky
617,Rikitea,PF,-23.1203,-134.9692,74.97,70,100,14.03,overcast clouds
618,Lompoc,US,34.6391,-120.4579,95.77,62,0,10.36,clear sky
619,Atuona,PF,-9.8,-139.0333,77.38,72,7,14.9,light rain
620,Sorland,NO,67.667,12.6934,46.26,76,0,16.28,clear sky
621,Bluff,NZ,-46.6,168.3333,39.79,95,100,13.62,light rain
622,Albany,US,42.6001,-73.9662,74.03,49,6,1.01,clear sky
623,Tasiilaq,GL,65.6145,-37.6368,42.96,72,80,5.88,broken clouds
624,Fortuna,US,40.5982,-124.1573,79.92,65,20,9.22,few clouds
625,Puerto Ayora,EC,-0.7393,-90.3518,80.56,69,0,11.39,clear sky
626,Jamestown,US,42.097,-79.2353,70.05,40,20,12.66,few clouds
627,Ilulissat,GL,69.2167,-51.1,35.62,93,75,5.75,broken clouds
628,Hilo,US,19.7297,-155.09,80.26,73,0,4.0,clear sky
629,Vaini,TO,-21.2,-175.2,69.96,94,75,4.61,broken clouds
630,Rikitea,PF,-23.1203,-134.9692,74.97,70,100,14.03,overcast clouds
631,Buin,CL,-33.7333,-70.75,77.43,24,100,1.3,overcast clouds
632,Banjarmasin,ID,-3.3244,114.591,77.14,95,100,3.33,light rain
633,Cape Town,ZA,-33.9258,18.4232,66.38,45,0,3.0,clear sky
634,Hobart,AU,-42.8794,147.3294,46.26,85,100,18.41,light rain
635,Adrar,MR,20.5022,-10.0711,100.58,9,21,5.39,few clouds
636,Unguia,CO,8.0434,-77.0945,87.82,69,87,2.15,overcast clouds
637,Sibolga,ID,1.7427,98.7792,75.06,90,100,3.71,overcast clouds
638,Shangrao,CN,28.4532,117.9686,66.47,90,100,5.08,overcast clouds
639,Te Anau,NZ,-45.4167,167.7167,37.0,95,100,4.14,light rain
640,Busselton,AU,-33.65,115.3333,63.14,89,94,20.71,light rain
641,Ust-Ishim,RU,57.6935,71.1665,53.19,97,8,3.91,clear sky
642,Ha Noi,VN,21.0245,105.8412,78.8,90,100,3.98,light rain
643,Hami,CN,42.8,93.45,74.62,10,35,4.25,scattered clouds
644,Bijar,IR,35.8668,47.6051,62.47,28,0,11.05,clear sky
645,Nome,US,64.5011,-165.4064,57.27,30,0,6.91,clear sky
646,Juneau,US,58.3019,-134.4197,57.22,82,75,11.5,broken clouds
647,Tiarei,PF,-17.5333,-149.3333,80.62,75,16,12.8,light rain
648,Hithadhoo,MV,-0.6,73.0833,84.54,69,43,11.83,scattered clouds
649,Narsaq,GL,60.9167,-46.05,61.02,54,100,3.98,overcast clouds
650,Genhe,CN,50.7833,121.5167,49.17,95,7,1.81,clear sky
651,Port Macquarie,AU,-31.4333,152.9167,38.89,77,0,7.49,clear sky
652,Ushuaia,AR,-54.8,-68.3,42.46,56,75,26.46,broken clouds
653,Mali,GN,12.079,-12.2982,75.06,51,14,3.65,few clouds
654,Avarua,CK,-21.2078,-159.775,75.25,60,72,5.75,broken clouds
655,Kalat,PK,29.0225,66.5916,71.1,10,0,2.89,clear sky
656,Puerto Ayora,EC,-0.7393,-90.3518,80.56,69,0,11.39,clear sky
657,Bambous Virieux,MU,-20.3428,57.7575,70.05,88,75,10.36,light rain
658,Gizo,SB,-8.103,156.8419,81.19,76,11,5.95,few clouds
659,Rikitea,PF,-23.1203,-134.9692,74.97,70,100,14.03,overcast clouds
660,Punta Arenas,CL,-53.15,-70.9167,41.11,70,75,18.41,broken clouds
661,Ushuaia,AR,-54.8,-68.3,42.46,56,75,26.46,broken clouds
662,Busselton,AU,-33.65,115.3333,63.14,89,94,20.71,light rain
663,Bredasdorp,ZA,-34.5322,20.0403,58.68,51,100,3.71,overcast clouds
664,Montanha,BR,-18.1269,-40.3633,83.05,42,10,7.83,clear sky
665,Hermanus,ZA,-34.4187,19.2345,64.94,40,33,9.33,scattered clouds
666,Punta Arenas,CL,-53.15,-70.9167,41.11,70,75,18.41,broken clouds
667,Rikitea,PF,-23.1203,-134.9692,74.97,70,100,14.03,overcast clouds
668,Atar,MR,20.5169,-13.0499,105.01,9,5,14.81,clear sky
669,Nagapattinam,IN,10.7667,79.8333,83.1,82,100,20.62,overcast clouds
670,Rantepao,ID,-2.9701,119.8978,65.16,95,33,2.13,scattered clouds
671,Hithadhoo,MV,-0.6,73.0833,84.54,69,43,11.83,scattered clouds
672,Ushuaia,AR,-54.8,-68.3,42.46,56,75,26.46,broken clouds
673,Busselton,AU,-33.65,115.3333,63.14,89,94,20.71,light rain
674,Tempio Pausania,IT,40.8974,9.1035,72.52,56,0,2.39,clear sky
675,Vaini,TO,-21.2,-175.2,69.96,94,75,4.61,broken clouds
676,Rafaela,AR,-31.2503,-61.4867,55.98,19,8,4.0,clear sky
677,Airai,TL,-8.9266,125.4092,57.45,94,59,4.0,broken clouds
678,Bom Jardim,BR,-7.7958,-35.5872,75.88,88,52,5.79,broken clouds
679,Pangody,RU,65.85,74.4859,57.74,80,100,9.37,overcast clouds
680,Dikson,RU,73.5069,80.5464,32.25,87,96,6.4,overcast clouds
681,Dikson,RU,73.5069,80.5464,32.25,87,96,6.4,overcast clouds
682,Orel,RU,52.9658,36.0803,65.35,87,93,5.77,overcast clouds
683,Inyonga,TZ,-6.7167,32.0667,69.21,51,99,5.17,overcast clouds
684,Khatanga,RU,71.9667,102.5,40.14,77,100,8.32,overcast clouds
685,Rikitea,PF,-23.1203,-134.9692,74.97,70,100,14.03,overcast clouds
686,Ancud,CL,-41.8697,-73.8203,47.73,62,75,5.95,broken clouds
687,Sibolga,ID,1.7427,98.7792,75.06,90,100,3.71,overcast clouds
688,Cape Town,ZA,-33.9258,18.4232,66.38,45,0,3.0,clear sky
689,Cape Town,ZA,-33.9258,18.4232,66.38,45,0,3.0,clear sky
690,Te Anau,NZ,-45.4167,167.7167,37.0,95,100,4.14,light rain
691,Taksimo,RU,56.3444,114.8794,54.7,82,53,2.75,broken clouds
692,Butaritari,KI,3.0707,172.7902,82.11,74,95,13.87,light rain
693,Amudat,UG,1.95,34.95,72.55,60,94,3.36,overcast clouds
694,Kahului,US,20.8947,-156.47,80.62,68,20,18.41,few clouds
695,Jiamusi,CN,46.8333,130.35,52.92,76,0,1.48,clear sky
696,Upernavik,GL,72.7868,-56.1549,31.86,77,17,10.36,few clouds
697,Hermanus,ZA,-34.4187,19.2345,64.94,40,33,9.33,scattered clouds
698,Provideniya,RU,64.3833,-173.3,47.64,35,100,8.86,overcast clouds
699,Torbay,CA,47.6666,-52.7314,62.28,96,100,14.97,light rain
700,Sale,MA,34.0389,-6.8166,85.64,73,75,5.75,broken clouds
701,Punta Arenas,CL,-53.15,-70.9167,41.11,70,75,18.41,broken clouds
702,Bredasdorp,ZA,-34.5322,20.0403,58.68,51,100,3.71,overcast clouds
703,Thinadhoo,MV,0.5333,72.9333,84.24,70,100,9.53,overcast clouds
704,Juneau,US,58.3019,-134.4197,57.22,82,75,11.5,broken clouds
705,New Norfolk,AU,-42.7826,147.0587,45.9,86,100,5.99,overcast clouds
706,Hermanus,ZA,-34.4187,19.2345,64.94,40,33,9.33,scattered clouds
707,Mataura,NZ,-46.1927,168.8643,39.47,96,100,1.97,moderate rain
708,Albany,US,42.6001,-73.9662,74.03,49,6,1.01,clear sky
709,Kruisfontein,ZA,-34.0033,24.7314,59.49,46,0,7.16,clear sky
710,Punta Arenas,CL,-53.15,-70.9167,41.11,70,75,18.41,broken clouds
711,Flinders,AU,-34.5833,150.8552,51.06,74,3,10.6,clear sky
712,Griffith,US,41.5284,-87.4237,80.53,38,40,9.22,scattered clouds
713,Vaini,TO,-21.2,-175.2,69.96,94,75,4.61,broken clouds
714,Hermanus,ZA,-34.4187,19.2345,64.94,40,33,9.33,scattered clouds
715,Avarua,CK,-21.2078,-159.775,75.25,60,72,5.75,broken clouds
716,Hobart,AU,-42.8794,147.3294,46.26,85,100,18.41,light rain
717,Rikitea,PF,-23.1203,-134.9692,74.97,70,100,14.03,overcast clouds
718,Codrington,AU,-38.2667,141.9667,51.64,66,100,15.5,overcast clouds
719,Ojinaga,MX,29.5667,-104.4167,101.57,30,0,5.75,clear sky
720,Katsuura,JP,35.1333,140.3,68.14,84,100,7.02,overcast clouds
721,Cidreira,BR,-30.1811,-50.2056,55.42,64,58,20.42,broken clouds
722,Kodiak,US,57.79,-152.4072,56.71,67,0,5.75,clear sky
723,Namibe,AO,-15.1961,12.1522,71.83,68,0,3.09,clear sky
724,Port Alfred,ZA,-33.5906,26.891,58.17,87,0,11.39,clear sky
725,San Policarpo,PH,12.1791,125.5072,77.58,89,100,7.92,light rain
726,Sayyan,YE,15.1718,44.3244,69.66,21,92,4.76,overcast clouds
727,Talas,TR,38.6908,35.5538,72.27,49,75,6.91,broken clouds
728,Iqaluit,CA,63.7506,-68.5145,51.53,57,20,16.11,few clouds
729,Xining,CN,36.6167,101.7667,53.85,62,32,2.01,scattered clouds
730,Castro,BR,-24.7911,-50.0119,60.17,84,100,5.66,overcast clouds
731,Carnarvon,AU,-24.8667,113.6333,69.78,71,1,8.37,clear sky
732,Busselton,AU,-33.65,115.3333,63.14,89,94,20.71,light rain
733,Mataura,NZ,-46.1927,168.8643,39.47,96,100,1.97,moderate rain
734,Linkoping,SE,58.4109,15.6216,61.99,71,100,11.5,overcast clouds
735,Maltahohe,NA,-24.8333,16.9833,57.45,22,2,10.38,clear sky
736,Ejido,VE,8.5514,-71.2375,75.47,77,100,4.0,overcast clouds
737,Almaznyy,RU,48.0448,40.045,65.25,57,0,3.56,clear sky
738,Hobart,AU,-42.8794,147.3294,46.26,85,100,18.41,light rain
739,Takoradi,GH,4.8845,-1.7554,77.43,87,100,7.63,light rain
740,Busselton,AU,-33.65,115.3333,63.14,89,94,20.71,light rain
741,Codrington,AU,-38.2667,141.9667,51.64,66,100,15.5,overcast clouds
742,Kassala,SD,15.451,36.4,94.26,34,93,5.75,overcast clouds
743,Ritchie,ZA,-29.038,24.6028,47.41,36,0,7.67,clear sky
744,Ketchikan,US,55.3422,-131.6461,52.27,87,100,13.8,moderate rain
745,Atuona,PF,-9.8,-139.0333,77.38,72,7,14.9,light rain
746,Bluff,NZ,-46.6,168.3333,39.79,95,100,13.62,light rain
747,Bluff,NZ,-46.6,168.3333,39.79,95,100,13.62,light rain
748,Ushuaia,AR,-54.8,-68.3,42.46,56,75,26.46,broken clouds
749,Geraldton,AU,-28.7667,114.6,63.01,94,40,10.36,scattered clouds
750,Georgetown,MY,5.4112,100.3354,80.53,93,20,1.14,few clouds
751,Hobart,AU,-42.8794,147.3294,46.26,85,100,18.41,light rain
752,Qaanaaq,GL,77.484,-69.3632,31.24,85,100,4.9,overcast clouds
753,Severo-Kurilsk,RU,50.6789,156.125,43.32,94,100,9.28,overcast clouds
754,Price,US,39.5994,-110.8107,92.12,11,0,10.36,clear sky
755,Deputatskiy,RU,69.3,139.9,46.56,68,32,2.1,scattered clouds
756,Sola,VU,-13.8833,167.55,81.09,79,93,13.15,overcast clouds
757,Marrakesh,MA,31.6315,-8.0083,98.67,30,40,4.61,scattered clouds
758,Ilulissat,GL,69.2167,-51.1,35.62,93,75,5.75,broken clouds
759,Ribeira Grande,PT,38.5167,-28.7,64.8,94,75,4.61,broken clouds
760,Butaritari,KI,3.0707,172.7902,82.11,74,95,13.87,light rain
761,Vaini,TO,-21.2,-175.2,69.96,94,75,4.61,broken clouds
762,Rikitea,PF,-23.1203,-134.9692,74.97,70,100,14.03,overcast clouds
763,Port Pirie,AU,-33.1833,138.0167,51.89,92,18,4.27,few clouds
764,Surgut,RU,61.25,73.4167,60.98,77,20,4.47,few clouds
765,Butaritari,KI,3.0707,172.7902,82.11,74,95,13.87,light rain
766,Tuktoyaktuk,CA,69.4541,-133.0374,41.0,65,75,9.22,broken clouds
767,Qaanaaq,GL,77.484,-69.3632,31.24,85,100,4.9,overcast clouds
768,Luderitz,NA,-26.6481,15.1594,66.38,32,100,1.77,overcast clouds
769,Rikitea,PF,-23.1203,-134.9692,74.97,70,100,14.03,overcast clouds
770,Arraial Do Cabo,BR,-22.9661,-42.0278,78.76,69,75,3.44,broken clouds
771,Cherskiy,RU,68.75,161.3,64.65,36,64,15.7,broken clouds
772,Katsuura,JP,35.1333,140.3,68.14,84,100,7.02,overcast clouds
773,Hermanus,ZA,-34.4187,19.2345,64.94,40,33,9.33,scattered clouds
774,Grand Gaube,MU,-20.0064,57.6608,70.2,85,25,4.0,light rain
775,Mayumba,GA,-3.432,10.6554,74.52,91,9,4.72,clear sky
776,Port Elizabeth,ZA,-33.918,25.5701,59.29,100,0,3.44,clear sky
777,Castro,BR,-24.7911,-50.0119,60.17,84,100,5.66,overcast clouds
778,Olafsvik,IS,64.8945,-23.7142,46.35,82,100,21.85,overcast clouds
779,Nanortalik,GL,60.1432,-45.2371,41.16,78,100,12.57,overcast clouds
780,Datong,CN,40.0936,113.2914,63.77,69,79,6.98,broken clouds
781,Barrow,US,71.2906,-156.7887,30.22,93,100,11.5,overcast clouds
782,Cinnaminson,US,39.9968,-74.9927,81.93,39,0,12.66,clear sky
783,Mandalgovi,MN,45.7625,106.2708,41.16,88,100,34.09,moderate rain
784,Vaini,TO,-21.2,-175.2,69.96,94,75,4.61,broken clouds
785,Port Blair,IN,11.6667,92.75,80.64,89,40,9.22,drizzle
786,Clyde River,CA,70.4692,-68.5914,34.03,93,100,10.36,overcast clouds
787,Punta Arenas,CL,-53.15,-70.9167,41.11,70,75,18.41,broken clouds
788,Pisco,PE,-13.7,-76.2167,67.01,77,2,10.36,haze
789,East London,ZA,-33.0153,27.9116,59.94,88,0,6.91,clear sky
790,Namibe,AO,-15.1961,12.1522,71.83,68,0,3.09,clear sky
791,Rikitea,PF,-23.1203,-134.9692,74.97,70,100,14.03,overcast clouds
792,Mataura,NZ,-46.1927,168.8643,39.47,96,100,1.97,moderate rain
793,Bara,NG,10.3744,10.7288,86.4,48,9,5.3,clear sky
794,Fortuna,US,40.5982,-124.1573,79.92,65,20,9.22,few clouds
795,Arraial Do Cabo,BR,-22.9661,-42.0278,78.76,69,75,3.44,broken clouds
796,Totness,SR,5.8833,-56.3167,81.39,83,58,7.99,broken clouds
797,Castro,BR,-24.7911,-50.0119,60.17,84,100,5.66,overcast clouds
798,Salamanca,ES,40.8333,-6.0,86.76,36,97,1.12,overcast clouds
799,Kaeo,NZ,-35.1,173.7833,61.32,90,26,14.23,light rain
800,Hofn,IS,64.2539,-15.2082,50.02,81,100,16.11,overcast clouds
801,Saskylakh,RU,71.9167,114.0833,39.7,79,0,16.22,clear sky
802,Vila Velha,BR,-20.3297,-40.2925,85.95,55,0,10.36,clear sky
803,Sistranda,NO,63.7256,8.834,53.56,81,100,3.33,overcast clouds
804,Puerto Ayora,EC,-0.7393,-90.3518,80.56,69,0,11.39,clear sky
805,Camacha,PT,33.0833,-16.3333,65.62,77,40,18.41,scattered clouds
806,Arraial Do Cabo,BR,-22.9661,-42.0278,78.76,69,75,3.44,broken clouds
807,Punta Arenas,CL,-53.15,-70.9167,41.11,70,75,18.41,broken clouds
808,Bredasdorp,ZA,-34.5322,20.0403,58.68,51,100,3.71,overcast clouds
809,Miram Shah,PK,33.0086,70.0697,83.73,22,5,7.16,clear sky
810,Jamestown,US,42.097,-79.2353,70.05,40,20,12.66,few clouds
811,Tura,IN,25.5198,90.2201,72.5,97,100,6.46,overcast clouds
812,Rikitea,PF,-23.1203,-134.9692,74.97,70,100,14.03,overcast clouds
813,Gurupi,BR,-11.7292,-49.0686,93.61,21,44,0.16,scattered clouds
814,Punta Arenas,CL,-53.15,-70.9167,41.11,70,75,18.41,broken clouds
815,Torbay,CA,47.6666,-52.7314,62.28,96,100,14.97,light rain
816,Tasiilaq,GL,65.6145,-37.6368,42.96,72,80,5.88,broken clouds
817,Rikitea,PF,-23.1203,-134.9692,74.97,70,100,14.03,overcast clouds
818,Bheramara,BD,24.0232,88.9925,83.25,83,99,10.4,overcast clouds
819,Chuy,UY,-33.6971,-53.4616,51.03,50,12,14.74,few clouds
820,Punta Arenas,CL,-53.15,-70.9167,41.11,70,75,18.41,broken clouds
821,Puerto Ayora,EC,-0.7393,-90.3518,80.56,69,0,11.39,clear sky
822,Barrow,US,71.2906,-156.7887,30.22,93,100,11.5,overcast clouds
823,Isangel,VU,-19.55,169.2667,75.96,87,62,0.27,broken clouds
824,Aksarayskiy,RU,46.7924,48.0119,75.13,30,2,6.02,clear sky
825,Northam,GB,51.0333,-4.2167,61.61,78,0,15.95,clear sky
826,Busselton,AU,-33.65,115.3333,63.14,89,94,20.71,light rain
827,Kapaa,US,22.0752,-159.319,79.12,75,20,10.36,few clouds
828,Mataura,NZ,-46.1927,168.8643,39.47,96,100,1.97,moderate rain
829,Constitucion,CL,-35.3333,-72.4167,60.17,45,0,8.14,clear sky
830,Port Elizabeth,ZA,-33.918,25.5701,59.29,100,0,3.44,clear sky
831,Hermanus,ZA,-34.4187,19.2345,64.94,40,33,9.33,scattered clouds
832,Rawson,AR,-43.3002,-65.1023,48.99,31,35,8.21,scattered clouds
833,Rio Gallegos,AR,-51.6226,-69.2181,44.65,45,75,12.66,broken clouds
834,Hovd,MN,48.0056,91.6419,54.19,27,0,2.17,clear sky
835,Atuona,PF,-9.8,-139.0333,77.38,72,7,14.9,light rain
836,Kaputa,ZM,-8.4689,29.6619,68.25,67,11,2.21,few clouds
837,Chuy,UY,-33.6971,-53.4616,51.03,50,12,14.74,few clouds
838,Jinchang,CN,38.4953,102.1739,66.99,17,100,5.19,overcast clouds
839,Punta Arenas,CL,-53.15,-70.9167,41.11,70,75,18.41,broken clouds
840,Mataura,NZ,-46.1927,168.8643,39.47,96,100,1.97,moderate rain
841,Yefremov,RU,53.1481,38.0992,64.4,90,100,7.94,overcast clouds
842,Vaini,TO,-21.2,-175.2,69.96,94,75,4.61,broken clouds
843,Sakakah,SA,29.9697,40.2064,96.37,14,0,2.13,clear sky
844,Acapulco,MX,16.8634,-99.8901,87.62,66,40,8.05,scattered clouds
845,Energetik,RU,51.7445,58.7934,55.89,86,91,10.07,overcast clouds
846,Manokwari,ID,-0.8667,134.0833,77.56,70,90,4.38,overcast clouds
847,Avarua,CK,-21.2078,-159.775,75.25,60,72,5.75,broken clouds
848,Ushuaia,AR,-54.8,-68.3,42.46,56,75,26.46,broken clouds
849,Hofn,IS,64.2539,-15.2082,50.02,81,100,16.11,overcast clouds
850,Cape Town,ZA,-33.9258,18.4232,66.38,45,0,3.0,clear sky
851,Ushuaia,AR,-54.8,-68.3,42.46,56,75,26.46,broken clouds
852,Arraial Do Cabo,BR,-22.9661,-42.0278,78.76,69,75,3.44,broken clouds
853,Albany,US,42.6001,-73.9662,74.03,49,6,1.01,clear sky
854,Iqaluit,CA,63.7506,-68.5145,51.53,57,20,16.11,few clouds
855,Jalu,LY,29.0331,21.5482,86.58,34,6,18.79,clear sky
856,Cherskiy,RU,68.75,161.3,64.65,36,64,15.7,broken clouds
857,Hermanus,ZA,-34.4187,19.2345,64.94,40,33,9.33,scattered clouds
858,Atuona,PF,-9.8,-139.0333,77.38,72,7,14.9,light rain
859,Curuca,BR,-0.7289,-47.8481,78.46,93,100,4.36,light rain
860,Huilong,CN,31.8111,121.655,70.93,84,84,11.41,broken clouds
861,Hermanus,ZA,-34.4187,19.2345,64.94,40,33,9.33,scattered clouds
862,Carnarvon,AU,-24.8667,113.6333,69.78,71,1,8.37,clear sky
863,Acajutla,SV,13.5928,-89.8275,83.75,69,100,7.29,overcast clouds
864,Rikitea,PF,-23.1203,-134.9692,74.97,70,100,14.03,overcast clouds
865,Jamestown,US,42.097,-79.2353,70.05,40,20,12.66,few clouds
866,Tiznit,MA,29.5833,-9.5,73.51,64,1,6.17,clear sky
867,Sioux Lookout,CA,50.1001,-91.917,66.27,42,20,11.5,few clouds
868,Leshukonskoye,RU,64.8989,45.7622,42.15,82,94,10.94,overcast clouds
869,Avarua,CK,-21.2078,-159.775,75.25,60,72,5.75,broken clouds
870,Chokurdakh,RU,70.6333,147.9167,48.72,53,73,10.74,broken clouds
871,Mataura,NZ,-46.1927,168.8643,39.47,96,100,1.97,moderate rain
872,Castro,BR,-24.7911,-50.0119,60.17,84,100,5.66,overcast clouds
873,Kodiak,US,57.79,-152.4072,56.71,67,0,5.75,clear sky
874,Nurota,UZ,40.5614,65.6886,82.18,19,24,10.87,few clouds
875,Duluth,US,46.7833,-92.1066,76.68,32,0,12.66,clear sky
876,Bluff,NZ,-46.6,168.3333,39.79,95,100,13.62,light rain
877,Aklavik,CA,68.2191,-135.0107,49.21,55,100,5.01,overcast clouds
878,Atuona,PF,-9.8,-139.0333,77.38,72,7,14.9,light rain
879,East London,ZA,-33.0153,27.9116,59.94,88,0,6.91,clear sky
880,Maraa,BR,-1.8333,-65.3667,85.86,66,79,2.62,light rain
881,Atuona,PF,-9.8,-139.0333,77.38,72,7,14.9,light rain
882,Punta Arenas,CL,-53.15,-70.9167,41.11,70,75,18.41,broken clouds
883,Avarua,CK,-21.2078,-159.775,75.25,60,72,5.75,broken clouds
884,Upernavik,GL,72.7868,-56.1549,31.86,77,17,10.36,few clouds
885,Kodiak,US,57.79,-152.4072,56.71,67,0,5.75,clear sky
886,Kapaa,US,22.0752,-159.319,79.12,75,20,10.36,few clouds
887,Stolin,BY,51.8912,26.846,67.26,80,78,3.56,light rain
888,Ushuaia,AR,-54.8,-68.3,42.46,56,75,26.46,broken clouds
889,Ontario,US,34.0633,-117.6509,105.87,45,20,12.66,few clouds
890,Havre,FR,49.5833,0.3333,68.34,72,75,4.61,broken clouds
891,Marfino,RU,55.7028,37.3822,69.71,59,0,4.47,clear sky
892,Muli,MV,2.9167,73.5667,82.92,74,100,10.47,overcast clouds
893,Port Hardy,CA,50.6996,-127.4199,57.38,82,75,5.75,broken clouds
894,Hasaki,JP,35.7333,140.8333,66.6,86,100,6.8,overcast clouds
895,Norman Wells,CA,65.282,-126.8329,50.04,66,75,16.11,broken clouds
896,Albany,US,42.6001,-73.9662,74.03,49,6,1.01,clear sky
897,Yurimaguas,PE,-5.9,-76.0833,80.76,83,100,3.44,shower rain
898,Rikitea,PF,-23.1203,-134.9692,74.97,70,100,14.03,overcast clouds
899,Qaanaaq,GL,77.484,-69.3632,31.24,85,100,4.9,overcast clouds
900,Sola,VU,-13.8833,167.55,81.09,79,93,13.15,overcast clouds
901,Chokurdakh,RU,70.6333,147.9167,48.72,53,73,10.74,broken clouds
902,Kiunga,PG,-6.1219,141.2906,73.22,100,100,0.07,overcast clouds
903,Albany,US,42.6001,-73.9662,74.03,49,6,1.01,clear sky
904,Punta Arenas,CL,-53.15,-70.9167,41.11,70,75,18.41,broken clouds
905,Atuona,PF,-9.8,-139.0333,77.38,72,7,14.9,light rain
906,Xining,CN,36.6167,101.7667,53.85,62,32,2.01,scattered clouds
907,Willemstad,CW,12.1084,-68.9335,87.71,66,8,13.8,clear sky
908,Maicao,CO,11.3832,-72.2432,88.56,53,100,16.71,overcast clouds
909,Harpanahalli,IN,14.8,75.9833,74.5,74,13,13.6,few clouds
910,Hambantota,LK,6.1241,81.1185,79.14,94,20,6.91,few clouds
911,Namibe,AO,-15.1961,12.1522,71.83,68,0,3.09,clear sky
912,Bethel,US,41.3712,-73.414,78.58,45,20,11.5,few clouds
913,Rikitea,PF,-23.1203,-134.9692,74.97,70,100,14.03,overcast clouds
914,Kapaa,US,22.0752,-159.319,79.12,75,20,10.36,few clouds
915,Chokurdakh,RU,70.6333,147.9167,48.72,53,73,10.74,broken clouds
916,Camaqua,BR,-30.8511,-51.8122,52.32,57,2,9.37,clear sky
917,Kysyl-Syr,RU,63.8986,122.7617,50.43,68,72,4.97,broken clouds
918,Ushuaia,AR,-54.8,-68.3,42.46,56,75,26.46,broken clouds
919,Kahului,US,20.8947,-156.47,80.62,68,20,18.41,few clouds
920,Butaritari,KI,3.0707,172.7902,82.11,74,95,13.87,light rain
921,Nantucket,US,41.2835,-70.0995,75.31,60,0,13.8,clear sky
922,Mataura,NZ,-46.1927,168.8643,39.47,96,100,1.97,moderate rain
923,Ayan,RU,56.45,138.1667,42.58,92,99,0.85,overcast clouds
924,Antalaha,MG,-14.9003,50.2788,71.29,84,84,6.38,light rain
925,Thinadhoo,MV,0.5333,72.9333,84.24,70,100,9.53,overcast clouds
926,Ushuaia,AR,-54.8,-68.3,42.46,56,75,26.46,broken clouds
927,Broken Hill,AU,-31.95,141.4333,47.07,92,25,9.57,scattered clouds
928,Auki,SB,-8.7676,160.7034,75.54,87,16,4.32,few clouds
929,Qaanaaq,GL,77.484,-69.3632,31.24,85,100,4.9,overcast clouds
930,East London,ZA,-33.0153,27.9116,59.94,88,0,6.91,clear sky
931,Lata,PT,40.1629,-8.3327,68.81,55,0,5.55,clear sky
932,Butaritari,KI,3.0707,172.7902,82.11,74,95,13.87,light rain
933,Burnie,AU,-41.0667,145.9167,47.91,77,100,20.96,overcast clouds
934,Albany,US,42.6001,-73.9662,74.03,49,6,1.01,clear sky
935,Pevek,RU,69.7008,170.3133,43.14,64,100,3.58,overcast clouds
936,New Norfolk,AU,-42.7826,147.0587,45.9,86,100,5.99,overcast clouds
937,Saint-Philippe,RE,-21.3585,55.7679,65.79,81,66,11.03,light rain
938,Sitka,US,57.0531,-135.33,51.69,82,100,12.66,light rain
939,Georgetown,MY,5.4112,100.3354,80.53,93,20,1.14,few clouds
940,Nikolskoye,RU,59.7035,30.7861,62.49,78,100,3.53,overcast clouds
941,Oktyabrskoye,RU,43.0645,44.7417,66.34,64,98,4.47,overcast clouds
942,Cape Town,ZA,-33.9258,18.4232,66.38,45,0,3.0,clear sky
943,Avarua,CK,-21.2078,-159.775,75.25,60,72,5.75,broken clouds
944,Bluff,NZ,-46.6,168.3333,39.79,95,100,13.62,light rain
945,Ushuaia,AR,-54.8,-68.3,42.46,56,75,26.46,broken clouds
946,Port Lincoln,AU,-34.7333,135.8667,55.99,75,100,8.86,overcast clouds
947,Te Anau,NZ,-45.4167,167.7167,37.0,95,100,4.14,light rain
948,Morehead,US,37.2711,-87.1764,75.99,70,75,3.44,broken clouds
949,Warrnambool,AU,-38.3833,142.4833,50.81,67,100,17.47,overcast clouds
950,Mar Del Plata,AR,-38.0023,-57.5575,48.09,82,40,16.11,scattered clouds
951,Vila Velha,BR,-20.3297,-40.2925,85.95,55,0,10.36,clear sky
952,Mount Gambier,AU,-37.8333,140.7667,50.45,68,100,8.16,overcast clouds
953,Newport,GB,51.5877,-2.9984,63.68,70,0,17.29,clear sky
954,Petatlan,MX,17.5167,-101.2667,87.6,50,33,8.39,scattered clouds
955,Ostrovnoy,RU,68.0531,39.5131,43.61,73,16,6.38,few clouds
956,Rio Claro,BR,-22.4114,-47.5614,69.66,83,88,8.48,overcast clouds
957,Syracuse,IT,37.0881,15.2792,78.39,74,2,9.33,clear sky
958,Kavieng,PG,-2.5744,150.7967,81.1,74,18,12.48,few clouds
959,Rabo De Peixe,PT,37.8,-25.5833,69.31,83,40,8.05,scattered clouds
960,Faya,SA,18.3851,42.4509,79.32,14,0,10.49,clear sky
961,Kapaa,US,22.0752,-159.319,79.12,75,20,10.36,few clouds
962,Rikitea,PF,-23.1203,-134.9692,74.97,70,100,14.03,overcast clouds
963,Albany,US,42.6001,-73.9662,74.03,49,6,1.01,clear sky
964,Camacha,PT,33.0833,-16.3333,65.62,77,40,18.41,scattered clouds
965,Tuatapere,NZ,-46.1333,167.6833,38.1,92,100,5.01,overcast clouds
966,Castro,BR,-24.7911,-50.0119,60.17,84,100,5.66,overcast clouds
967,Mataura,NZ,-46.1927,168.8643,39.47,96,100,1.97,moderate rain
968,Beisfjord,NO,68.3751,17.5988,57.04,55,0,1.39,clear sky
969,Sombrio,BR,-29.1139,-49.6167,60.93,79,55,19.04,broken clouds
970,Hobart,AU,-42.8794,147.3294,46.26,85,100,18.41,light rain
971,Quang Ngai,VN,15.1167,108.8,79.29,82,100,3.09,overcast clouds
972,Sale,MA,34.0389,-6.8166,85.64,73,75,5.75,broken clouds
973,Hof,DE,50.3167,11.9167,67.23,42,52,8.05,broken clouds
974,Provideniya,RU,64.3833,-173.3,47.64,35,100,8.86,overcast clouds
975,Lorengau,PG,-2.0226,147.2712,79.83,70,18,5.59,few clouds
976,Vila Velha,BR,-20.3297,-40.2925,85.95,55,0,10.36,clear sky
977,Saint-Philippe,RE,-21.3585,55.7679,65.79,81,66,11.03,light rain
978,Castro,BR,-24.7911,-50.0119,60.17,84,100,5.66,overcast clouds
979,Nova Olinda Do Norte,BR,-3.8881,-59.0942,85.37,67,95,2.84,overcast clouds
980,Aleksandrovsk-Sakhalinskiy,RU,50.8975,142.1561,43.11,92,67,4.52,broken clouds
981,Alta Floresta,BR,-9.8756,-56.0861,73.22,83,75,12.66,broken clouds
982,Ivybridge,GB,50.3904,-3.9191,63.68,81,0,15.28,clear sky
983,Avera,US,33.194,-82.5271,87.39,30,99,3.36,overcast clouds
984,Nizwa,OM,22.9333,57.5333,96.93,13,0,3.06,clear sky
985,Shingu,JP,33.7333,135.9833,66.67,92,100,2.91,moderate rain
986,Tabou,CI,4.423,-7.3528,77.04,87,99,7.94,light rain
987,Hilo,US,19.7297,-155.09,80.26,73,0,4.0,clear sky
988,Airai,TL,-8.9266,125.4092,57.45,94,59,4.0,broken clouds
989,Tuatapere,NZ,-46.1333,167.6833,38.1,92,100,5.01,overcast clouds
990,Srednekolymsk,RU,67.45,153.6833,49.59,76,100,10.69,overcast clouds
991,Klaksvik,FO,62.2266,-6.589,52.72,96,100,28.79,light rain
992,Baykit,RU,61.67,96.37,53.92,67,83,3.11,broken clouds
993,Busselton,AU,-33.65,115.3333,63.14,89,94,20.71,light rain
994,Rikitea,PF,-23.1203,-134.9692,74.97,70,100,14.03,overcast clouds
995,Aguimes,ES,27.9054,-15.4461,72.23,60,20,29.93,few clouds
996,Enshi,CN,30.3,109.4833,68.38,90,54,1.3,broken clouds
997,Atuona,PF,-9.8,-139.0333,77.38,72,7,14.9,light rain
998,Rio Gallegos,AR,-51.6226,-69.2181,44.65,45,75,12.66,broken clouds
999,Sesheke,ZM,-17.4759,24.2968,61.32,59,33,6.6,scattered clouds
1000,Codrington,AU,-38.2667,141.9667,51.64,66,100,15.5,overcast clouds
1001,Kapaa,US,22.0752,-159.319,79.12,75,20,10.36,few clouds
1002,Chuy,UY,-33.6971,-53.4616,51.03,50,12,14.74,few clouds
1003,Torbay,CA,47.6666,-52.7314,62.28,96,100,14.97,light rain
1004,Cape Town,ZA,-33.9258,18.4232,66.38,45,0,3.0,clear sky
1005,Cochrane,CA,51.1834,-114.4687,72.54,30,0,17.27,clear sky
1006,Esil,KZ,51.9556,66.4042,58.98,63,10,8.95,clear sky
1007,Acarau,BR,-2.8856,-40.12,80.94,81,24,11.18,few clouds
1008,Arman,RU,59.7,150.1667,37.02,99,100,8.7,moderate rain
1009,Kruisfontein,ZA,-34.0033,24.7314,59.49,46,0,7.16,clear sky
1010,Salvador,SV,13.8333,-88.9167,85.05,59,100,2.01,overcast clouds
1011,Kapaa,US,22.0752,-159.319,79.12,75,20,10.36,few clouds
1012,Ostrovnoy,RU,68.0531,39.5131,43.61,73,16,6.38,few clouds
1013,Port-Gentil,GA,-0.7193,8.7815,76.96,83,20,5.75,few clouds
1014,Airai,TL,-8.9266,125.4092,57.45,94,59,4.0,broken clouds
1015,Mataura,NZ,-46.1927,168.8643,39.47,96,100,1.97,moderate rain
1016,Barrow,US,71.2906,-156.7887,30.22,93,100,11.5,overcast clouds
1017,Ushuaia,AR,-54.8,-68.3,42.46,56,75,26.46,broken clouds
1018,Goure,NE,13.9835,10.2704,91.9,28,11,7.05,few clouds
1019,Hermanus,ZA,-34.4187,19.2345,64.94,40,33,9.33,scattered clouds
1020,Rikitea,PF,-23.1203,-134.9692,74.97,70,100,14.03,overcast clouds
1021,Albany,US,42.6001,-73.9662,74.03,49,6,1.01,clear sky
1022,Meulaboh,ID,4.1363,96.1285,75.4,90,32,6.69,scattered clouds
1023,Hobart,AU,-42.8794,147.3294,46.26,85,100,18.41,light rain
1024,Cururupu,BR,-1.8283,-44.8683,83.7,66,30,6.82,scattered clouds
1025,Pevek,RU,69.7008,170.3133,43.14,64,100,3.58,overcast clouds
1026,Chipata,ZM,-13.6333,32.65,55.24,86,21,6.02,few clouds
1027,Apatou,GF,5.155,-54.3472,82.0,89,91,3.71,moderate rain
1028,Otane,NZ,-39.8833,176.6333,58.01,56,0,13.65,clear sky
1029,Solnechnyy,RU,50.7214,136.6319,40.06,93,6,2.44,clear sky
1030,Rutigliano,IT,41.0111,17.0055,74.57,78,5,16.87,clear sky
1031,Jinchang,CN,38.4953,102.1739,66.99,17,100,5.19,overcast clouds
1032,Hithadhoo,MV,-0.6,73.0833,84.54,69,43,11.83,scattered clouds
1033,Pangkalanbuun,ID,-2.6833,111.6167,74.53,96,100,1.48,overcast clouds
1034,Yining,CN,29.0361,114.5636,70.3,93,100,1.28,overcast clouds
1035,Mataura,NZ,-46.1927,168.8643,39.47,96,100,1.97,moderate rain
1036,Albany,US,42.6001,-73.9662,74.03,49,6,1.01,clear sky
1037,Micheweni,TZ,-4.9667,39.8333,77.88,79,70,12.66,broken clouds
1038,Sayyan,YE,15.1718,44.3244,69.66,21,92,4.76,overcast clouds
1039,Mvuma,ZW,-19.2792,30.5283,47.73,61,0,9.53,clear sky
1040,Hilo,US,19.7297,-155.09,80.26,73,0,4.0,clear sky
1041,Hasaki,JP,35.7333,140.8333,66.6,86,100,6.8,overcast clouds
1042,Ribeira Grande,PT,38.5167,-28.7,64.8,94,75,4.61,broken clouds
1043,Maxixe,MZ,-23.8597,35.3472,69.62,73,40,8.05,scattered clouds
1044,Xiongzhou,CN,25.1167,114.3,75.15,98,100,1.25,light rain
1045,Jamestown,US,42.097,-79.2353,70.05,40,20,12.66,few clouds
1046,Busselton,AU,-33.65,115.3333,63.14,89,94,20.71,light rain
1047,Yellowknife,CA,62.456,-114.3525,70.32,46,75,10.36,broken clouds
1048,Mutoko,ZW,-17.397,32.2268,56.46,50,82,6.78,broken clouds
1049,Kapaa,US,22.0752,-159.319,79.12,75,20,10.36,few clouds
1050,Bluff,NZ,-46.6,168.3333,39.79,95,100,13.62,light rain
1051,Kuznechnoye,RU,61.12,29.8686,57.06,85,100,2.86,overcast clouds
1052,Katsuura,JP,35.1333,140.3,68.14,84,100,7.02,overcast clouds
1053,Portland,US,45.5234,-122.6762,68.97,83,100,5.99,overcast clouds
1054,Sao Joao Da Barra,BR,-21.6403,-41.0511,86.09,68,25,8.79,scattered clouds
1055,Puerto Ayora,EC,-0.7393,-90.3518,80.56,69,0,11.39,clear sky
1056,Williams Lake,CA,52.1415,-122.1445,72.05,44,75,8.05,broken clouds
1057,Mataura,NZ,-46.1927,168.8643,39.47,96,100,1.97,moderate rain
1058,Fasa,IR,28.9383,53.6482,83.44,10,0,9.22,clear sky
1059,Yulara,AU,-25.2406,130.9889,46.09,58,99,9.35,overcast clouds
1060,Bredasdorp,ZA,-34.5322,20.0403,58.68,51,100,3.71,overcast clouds
1061,Jamestown,US,42.097,-79.2353,70.05,40,20,12.66,few clouds
1062,Hobart,AU,-42.8794,147.3294,46.26,85,100,18.41,light rain
1063,Vaini,TO,-21.2,-175.2,69.96,94,75,4.61,broken clouds
1064,Carnarvon,AU,-24.8667,113.6333,69.78,71,1,8.37,clear sky
1065,San Patricio,US,28.017,-97.5169,97.52,40,9,18.41,clear sky
1066,Rocha,UY,-34.4833,-54.3333,47.66,59,50,17.09,scattered clouds
1067,Panguna,PG,-6.3164,155.4848,66.67,95,10,1.95,clear sky
1068,Mackay,AU,-21.15,149.2,43.68,56,88,12.82,overcast clouds
1069,Ilulissat,GL,69.2167,-51.1,35.62,93,75,5.75,broken clouds
1070,Hermanus,ZA,-34.4187,19.2345,64.94,40,33,9.33,scattered clouds
1071,Albany,US,42.6001,-73.9662,74.03,49,6,1.01,clear sky
1072,Kapaa,US,22.0752,-159.319,79.12,75,20,10.36,few clouds
1073,Bambous Virieux,MU,-20.3428,57.7575,70.05,88,75,10.36,light rain
1074,Yeniseysk,RU,58.4497,92.1703,52.34,77,62,4.81,broken clouds
1075,Los Llanos De Aridane,ES,28.6585,-17.9182,72.12,85,0,14.97,clear sky
1076,Cidreira,BR,-30.1811,-50.2056,55.42,64,58,20.42,broken clouds
1077,Santa Ines,BR,-3.6667,-45.38,80.26,91,100,2.51,overcast clouds
1078,Ushuaia,AR,-54.8,-68.3,42.46,56,75,26.46,broken clouds
1079,Inhambane,MZ,-23.865,35.3833,69.78,73,40,8.05,scattered clouds
1080,Bluff,NZ,-46.6,168.3333,39.79,95,100,13.62,light rain
1081,Tuktoyaktuk,CA,69.4541,-133.0374,41.0,65,75,9.22,broken clouds
1082,Eirunepe,BR,-6.6603,-69.8736,83.17,66,70,3.89,broken clouds
1083,Ponta Do Sol,PT,32.6667,-17.1,76.71,71,0,3.94,clear sky
1084,Te Anau,NZ,-45.4167,167.7167,37.0,95,100,4.14,light rain
1085,Ushuaia,AR,-54.8,-68.3,42.46,56,75,26.46,broken clouds
1086,Kurilsk,RU,45.2333,147.8833,41.49,91,52,9.93,broken clouds
1087,Mataura,NZ,-46.1927,168.8643,39.47,96,100,1.97,moderate rain
1088,Albany,US,42.6001,-73.9662,74.03,49,6,1.01,clear sky
1089,Albany,US,42.6001,-73.9662,74.03,49,6,1.01,clear sky
1090,Craig,US,40.5153,-107.5464,80.55,26,0,3.44,clear sky
1091,Tartus,SY,34.889,35.8866,74.53,66,0,1.97,clear sky
1092,Aswan,EG,24.0934,32.907,101.5,12,0,4.61,clear sky
1093,Okato,NZ,-39.2,173.8833,59.18,86,87,18.99,light rain
1094,Vaini,TO,-21.2,-175.2,69.96,94,75,4.61,broken clouds
1095,Sitka,US,57.0531,-135.33,51.69,82,100,12.66,light rain
1096,Sazonovo,RU,59.0919,35.2268,57.67,75,100,4.45,overcast clouds
1097,Srednekolymsk,RU,67.45,153.6833,49.59,76,100,10.69,overcast clouds
1098,Albany,US,42.6001,-73.9662,74.03,49,6,1.01,clear sky
1099,Saint George,US,37.1041,-113.5841,102.63,15,0,3.44,clear sky
1100,Avarua,CK,-21.2078,-159.775,75.25,60,72,5.75,broken clouds
1101,Severo-Kurilsk,RU,50.6789,156.125,43.32,94,100,9.28,overcast clouds
1102,Iskateley,RU,67.6803,53.1512,42.96,81,100,20.6,overcast clouds
1103,Barrow,US,71.2906,-156.7887,30.22,93,100,11.5,overcast clouds
1104,Usinsk,RU,65.9939,57.5281,64.94,47,47,8.72,scattered clouds
1105,Bontang,ID,0.1333,117.5,78.03,83,100,2.08,overcast clouds
1106,Vinh,VN,18.6667,105.6667,81.36,73,100,4.94,overcast clouds
1107,Kitimat,CA,54.0524,-128.6534,55.78,26,100,1.99,light rain
1108,Ushuaia,AR,-54.8,-68.3,42.46,56,75,26.46,broken clouds
1109,Atambua,ID,-9.1061,124.8925,72.07,85,100,8.03,overcast clouds
1110,Rikitea,PF,-23.1203,-134.9692,74.97,70,100,14.03,overcast clouds
1111,Rawson,AR,-43.3002,-65.1023,48.99,31,35,8.21,scattered clouds
1112,Port Elizabeth,ZA,-33.918,25.5701,59.29,100,0,3.44,clear sky
1113,Hermanus,ZA,-34.4187,19.2345,64.94,40,33,9.33,scattered clouds
1114,Lena,ES,43.1,-5.7333,52.34,97,77,4.36,broken clouds
1115,Saint-Philippe,RE,-21.3585,55.7679,65.79,81,66,11.03,light rain
1116,Liverpool,GB,53.4106,-2.9779,66.74,58,20,24.16,few clouds
1117,Puerto Ayora,EC,-0.7393,-90.3518,80.56,69,0,11.39,clear sky
1118,Souillac,MU,-20.5167,57.5167,70.18,88,75,10.36,light rain
1119,Saint-Philippe,RE,-21.3585,55.7679,65.79,81,66,11.03,light rain
1120,Hilo,US,19.7297,-155.09,80.26,73,0,4.0,clear sky
1121,Ushuaia,AR,-54.8,-68.3,42.46,56,75,26.46,broken clouds
1122,Sao Filipe,CV,14.8961,-24.4956,74.57,82,1,10.2,clear sky
1123,Hobart,AU,-42.8794,147.3294,46.26,85,100,18.41,light rain
1124,Punta Arenas,CL,-53.15,-70.9167,41.11,70,75,18.41,broken clouds
1125,Baoro,CF,5.6667,15.9667,70.7,85,44,2.37,scattered clouds
1126,Busselton,AU,-33.65,115.3333,63.14,89,94,20.71,light rain
1127,Sao Jose Da Coroa Grande,BR,-8.8978,-35.1478,79.88,79,19,3.67,few clouds
1128,Ushuaia,AR,-54.8,-68.3,42.46,56,75,26.46,broken clouds
1129,Richards Bay,ZA,-28.783,32.0377,64.04,85,11,4.47,few clouds
1130,Villa Literno,IT,41.0099,14.0805,75.94,62,0,6.24,clear sky
1131,Hilo,US,19.7297,-155.09,80.26,73,0,4.0,clear sky
1132,Drovyanaya,RU,51.5833,113.0333,49.26,95,100,1.72,overcast clouds
1133,San Rafael,AR,-34.6177,-68.3301,57.61,28,20,10.42,few clouds
1134,Hualmay,PE,-11.0964,-77.6139,68.63,71,36,10.67,scattered clouds
1135,New Norfolk,AU,-42.7826,147.0587,45.9,86,100,5.99,overcast clouds
1136,Souillac,MU,-20.5167,57.5167,70.18,88,75,10.36,light rain
1137,Ranong,TH,9.9658,98.6348,79.99,85,81,8.41,broken clouds
1138,Geraldton,AU,-28.7667,114.6,63.01,94,40,10.36,scattered clouds
1139,Arraial Do Cabo,BR,-22.9661,-42.0278,78.76,69,75,3.44,broken clouds
1140,Pella,RU,59.7775,30.8181,61.95,78,100,3.78,overcast clouds
1141,Upernavik,GL,72.7868,-56.1549,31.86,77,17,10.36,few clouds
1142,Havre-Saint-Pierre,CA,50.2334,-63.5986,52.16,93,100,11.5,mist
1143,Narsaq,GL,60.9167,-46.05,61.02,54,100,3.98,overcast clouds
1144,Kualakapuas,ID,-3.0091,114.3876,73.71,97,100,2.8,moderate rain
1145,Ushuaia,AR,-54.8,-68.3,42.46,56,75,26.46,broken clouds
1146,Orlovskiy,RU,46.8714,42.0592,67.66,41,0,8.75,clear sky
1147,Mathbaria,BD,22.2876,89.9593,83.41,87,100,10.96,overcast clouds
1148,Dikson,RU,73.5069,80.5464,32.25,87,96,6.4,overcast clouds
1149,Carnarvon,AU,-24.8667,113.6333,69.78,71,1,8.37,clear sky
1150,Saldanha,ZA,-33.0117,17.9442,60.85,40,39,8.95,scattered clouds
1151,Thompson,CA,55.7435,-97.8558,69.96,32,20,3.44,few clouds
1152,Vaini,TO,-21.2,-175.2,69.96,94,75,4.61,broken clouds
1153,Samarai,PG,-10.6167,150.6667,79.57,80,97,5.19,overcast clouds
1154,Hobart,AU,-42.8794,147.3294,46.26,85,100,18.41,light rain
1155,Mahebourg,MU,-20.4081,57.7,70.09,88,75,10.36,broken clouds
1156,Ushuaia,AR,-54.8,-68.3,42.46,56,75,26.46,broken clouds
1157,Bar-Le-Duc,FR,48.75,5.1667,71.98,74,12,2.91,few clouds
1158,Bluff,NZ,-46.6,168.3333,39.79,95,100,13.62,light rain
1159,Tiksi,RU,71.6872,128.8694,39.0,78,3,4.97,clear sky
1160,Phan Thiet,VN,10.9333,108.1,77.86,86,100,3.67,overcast clouds
1161,Kahului,US,20.8947,-156.47,80.62,68,20,18.41,few clouds
1162,Ushuaia,AR,-54.8,-68.3,42.46,56,75,26.46,broken clouds
1163,Dryden,CA,49.7833,-92.7503,70.09,28,0,5.75,clear sky
1164,Bredasdorp,ZA,-34.5322,20.0403,58.68,51,100,3.71,overcast clouds
1165,Dikson,RU,73.5069,80.5464,32.25,87,96,6.4,overcast clouds
1166,Vaini,TO,-21.2,-175.2,69.96,94,75,4.61,broken clouds
1167,Rikitea,PF,-23.1203,-134.9692,74.97,70,100,14.03,overcast clouds
1168,Cape Town,ZA,-33.9258,18.4232,66.38,45,0,3.0,clear sky
1169,Ahuimanu,US,21.4447,-157.8378,80.31,63,20,12.66,few clouds
1170,Vila Franca Do Campo,PT,37.7167,-25.4333,70.21,86,98,5.35,overcast clouds
1171,Yulara,AU,-25.2406,130.9889,46.09,58,99,9.35,overcast clouds
1172,Salalah,OM,17.0151,54.0924,86.09,79,75,8.05,broken clouds
1173,Lompoc,US,34.6391,-120.4579,95.77,62,0,10.36,clear sky
1174,Chokurdakh,RU,70.6333,147.9167,48.72,53,73,10.74,broken clouds
1175,Punta Arenas,CL,-53.15,-70.9167,41.11,70,75,18.41,broken clouds
1176,Hobart,AU,-42.8794,147.3294,46.26,85,100,18.41,light rain
1177,Norman Wells,CA,65.282,-126.8329,50.04,66,75,16.11,broken clouds
1178,Lakatoro,VU,-16.0999,167.4164,78.75,85,100,4.29,overcast clouds
1179,Lewisporte,CA,49.2499,-55.0482,64.11,82,100,18.28,overcast clouds
1180,Barbastro,ES,42.0356,0.1269,91.94,21,18,5.44,few clouds
1181,Palmer,US,42.1584,-72.3287,77.52,44,75,12.66,broken clouds
1182,Flin Flon,CA,54.7682,-101.865,69.64,35,100,12.66,overcast clouds
1183,Ushuaia,AR,-54.8,-68.3,42.46,56,75,26.46,broken clouds
1184,Rikitea,PF,-23.1203,-134.9692,74.97,70,100,14.03,overcast clouds
1185,Atuona,PF,-9.8,-139.0333,77.38,72,7,14.9,light rain
1186,Busselton,AU,-33.65,115.3333,63.14,89,94,20.71,light rain
1187,Kirchzarten,DE,47.9667,7.95,74.39,70,24,2.46,few clouds
1188,Chuy,UY,-33.6971,-53.4616,51.03,50,12,14.74,few clouds
1189,Bambous Virieux,MU,-20.3428,57.7575,70.05,88,75,10.36,light rain
1190,Aswan,EG,24.0934,32.907,101.5,12,0,4.61,clear sky
1191,Busselton,AU,-33.65,115.3333,63.14,89,94,20.71,light rain
1192,Port Alfred,ZA,-33.5906,26.891,58.17,87,0,11.39,clear sky
1193,Abilene,US,32.4487,-99.7331,97.29,33,0,12.66,clear sky
1194,Clyde River,CA,70.4692,-68.5914,34.03,93,100,10.36,overcast clouds
1195,Jamestown,US,42.097,-79.2353,70.05,40,20,12.66,few clouds
1196,Yellowknife,CA,62.456,-114.3525,70.32,46,75,10.36,broken clouds
1197,Anito,PH,12.4497,125.2886,77.81,89,100,3.96,overcast clouds
1198,Punta Arenas,CL,-53.15,-70.9167,41.11,70,75,18.41,broken clouds
1199,Busselton,AU,-33.65,115.3333,63.14,89,94,20.71,light rain
1200,Mataura,NZ,-46.1927,168.8643,39.47,96,100,1.97,moderate rain
1201,Hengshan,CN,45.2,130.9167,48.69,94,6,1.7,clear sky
1202,Chuy,UY,-33.6971,-53.4616,51.03,50,12,14.74,few clouds
1203,Fatezh,RU,52.0891,35.8632,67.98,77,31,4.76,scattered clouds
1204,Tasiilaq,GL,65.6145,-37.6368,42.96,72,80,5.88,broken clouds
1205,Qaanaaq,GL,77.484,-69.3632,31.24,85,100,4.9,overcast clouds
1206,Norman Wells,CA,65.282,-126.8329,50.04,66,75,16.11,broken clouds
1207,Butaritari,KI,3.0707,172.7902,82.11,74,95,13.87,light rain
1208,Saint-Philippe,RE,-21.3585,55.7679,65.79,81,66,11.03,light rain
1209,Ushuaia,AR,-54.8,-68.3,42.46,56,75,26.46,broken clouds
1210,Kapaa,US,22.0752,-159.319,79.12,75,20,10.36,few clouds
1211,Ushuaia,AR,-54.8,-68.3,42.46,56,75,26.46,broken clouds
1212,Mar Del Plata,AR,-38.0023,-57.5575,48.09,82,40,16.11,scattered clouds
1213,College,US,64.8569,-147.8028,54.21,65,100,6.91,overcast clouds
1214,Broken Hill,AU,-31.95,141.4333,47.07,92,25,9.57,scattered clouds
1215,Iqaluit,CA,63.7506,-68.5145,51.53,57,20,16.11,few clouds
1216,Faanui,PF,-16.4833,-151.75,80.24,75,9,18.97,clear sky
1217,Osypenko,UA,46.9136,36.8253,69.69,71,71,3.18,broken clouds
1218,Flinders,AU,-34.5833,150.8552,51.06,74,3,10.6,clear sky
1219,Sakakah,SA,29.9697,40.2064,96.37,14,0,2.13,clear sky
1220,Butaritari,KI,3.0707,172.7902,82.11,74,95,13.87,light rain
1221,Hilo,US,19.7297,-155.09,80.26,73,0,4.0,clear sky
1222,Kasama,ZM,-10.2129,31.1808,55.18,81,6,4.47,clear sky
1223,Rikitea,PF,-23.1203,-134.9692,74.97,70,100,14.03,overcast clouds
1224,Yellowknife,CA,62.456,-114.3525,70.32,46,75,10.36,broken clouds
1225,Orlik,RU,52.5178,99.825,39.76,90,36,2.82,scattered clouds
1226,Rio Branco,BR,-9.9747,-67.81,70.41,94,75,6.91,broken clouds
1227,Mataura,NZ,-46.1927,168.8643,39.47,96,100,1.97,moderate rain
1228,Ushuaia,AR,-54.8,-68.3,42.46,56,75,26.46,broken clouds
1229,Atuona,PF,-9.8,-139.0333,77.38,72,7,14.9,light rain
1230,Lompoc,US,34.6391,-120.4579,95.77,62,0,10.36,clear sky
1231,Teya,RU,60.3778,92.6267,53.6,66,64,2.33,broken clouds
1232,Rocha,UY,-34.4833,-54.3333,47.66,59,50,17.09,scattered clouds
1233,Vao,NC,-22.6667,167.4833,72.16,82,93,12.46,overcast clouds
1234,Boyolangu,ID,-8.1181,111.8935,75.24,92,71,0.96,broken clouds
1235,Vestmannaeyjar,IS,63.4427,-20.2734,56.39,67,40,6.91,scattered clouds
1236,Russkaya Polyana,UA,49.417,31.9201,67.06,67,99,6.53,overcast clouds
1237,Paamiut,GL,61.994,-49.6678,39.49,81,100,7.83,overcast clouds
1238,Quelimane,MZ,-17.8786,36.8883,67.95,88,20,10.36,few clouds
1239,Hobart,AU,-42.8794,147.3294,46.26,85,100,18.41,light rain
1240,Kostino,RU,58.9097,53.2691,51.19,97,48,4.0,scattered clouds
1241,Broome,US,42.2506,-75.833,72.7,51,20,14.97,few clouds
1242,Aykhal,RU,66.0,111.5,41.56,85,97,9.8,overcast clouds
1243,Tura,IN,25.5198,90.2201,72.5,97,100,6.46,overcast clouds
1244,Tuktoyaktuk,CA,69.4541,-133.0374,41.0,65,75,9.22,broken clouds
1245,Hilo,US,19.7297,-155.09,80.26,73,0,4.0,clear sky
1246,Bredasdorp,ZA,-34.5322,20.0403,58.68,51,100,3.71,overcast clouds
1247,Bredasdorp,ZA,-34.5322,20.0403,58.68,51,100,3.71,overcast clouds
1248,Vila Velha,BR,-20.3297,-40.2925,85.95,55,0,10.36,clear sky
1249,Port Alfred,ZA,-33.5906,26.891,58.17,87,0,11.39,clear sky
1250,Mataura,NZ,-46.1927,168.8643,39.47,96,100,1.97,moderate rain
1251,Norman Wells,CA,65.282,-126.8329,50.04,66,75,16.11,broken clouds
1252,Sioux Lookout,CA,50.1001,-91.917,66.27,42,20,11.5,few clouds
1253,Mataura,NZ,-46.1927,168.8643,39.47,96,100,1.97,moderate rain
1254,Tula,RU,54.2044,37.6111,63.84,84,87,4.27,overcast clouds
1255,Port Lincoln,AU,-34.7333,135.8667,55.99,75,100,8.86,overcast clouds
1256,Hilo,US,19.7297,-155.09,80.26,73,0,4.0,clear sky
1257,Tuktoyaktuk,CA,69.4541,-133.0374,41.0,65,75,9.22,broken clouds
1258,Vao,NC,-22.6667,167.4833,72.16,82,93,12.46,overcast clouds
1259,Emerald,AU,-23.5333,148.1667,38.34,85,36,8.84,scattered clouds
1260,Mirnyy,RU,62.5353,113.9611,50.23,76,62,8.99,broken clouds
1261,Lagoa,PT,39.05,-27.9833,60.46,92,100,13.22,light rain
1262,Arraial Do Cabo,BR,-22.9661,-42.0278,78.76,69,75,3.44,broken clouds
1263,Bengkulu,ID,-3.8004,102.2655,74.64,87,99,2.19,overcast clouds
1264,Nizhniy Bestyakh,RU,61.9594,129.9086,56.68,67,0,8.95,clear sky
1265,Vaini,TO,-21.2,-175.2,69.96,94,75,4.61,broken clouds
1266,La Ciotat,FR,43.1748,5.6045,83.61,50,0,5.26,clear sky
1267,Rikitea,PF,-23.1203,-134.9692,74.97,70,100,14.03,overcast clouds
1268,Forio,IT,40.7342,13.8646,75.49,71,1,15.01,clear sky
1269,Airai,TL,-8.9266,125.4092,57.45,94,59,4.0,broken clouds
1270,Hermanus,ZA,-34.4187,19.2345,64.94,40,33,9.33,scattered clouds
1271,Lata,PT,40.1629,-8.3327,68.81,55,0,5.55,clear sky
1272,Ushuaia,AR,-54.8,-68.3,42.46,56,75,26.46,broken clouds
1273,Narsaq,GL,60.9167,-46.05,61.02,54,100,3.98,overcast clouds
1274,Busselton,AU,-33.65,115.3333,63.14,89,94,20.71,light rain
1275,Jiuquan,CN,39.7432,98.5174,63.86,17,100,4.27,overcast clouds
1276,Vaini,TO,-21.2,-175.2,69.96,94,75,4.61,broken clouds
1277,Beringovskiy,RU,63.05,179.3167,39.85,69,4,7.58,clear sky
1278,Hobart,AU,-42.8794,147.3294,46.26,85,100,18.41,light rain
1279,Castro,BR,-24.7911,-50.0119,60.17,84,100,5.66,overcast clouds
1280,Cape Town,ZA,-33.9258,18.4232,66.38,45,0,3.0,clear sky
1281,Sarandi,BR,-23.4436,-51.8739,65.75,77,75,8.05,light rain
1282,Ilulissat,GL,69.2167,-51.1,35.62,93,75,5.75,broken clouds
1283,Nikolskoye,RU,59.7035,30.7861,62.49,78,100,3.53,overcast clouds
1284,Rio Grande,BR,-32.035,-52.0986,55.51,52,6,18.16,clear sky
1285,Punta Arenas,CL,-53.15,-70.9167,41.11,70,75,18.41,broken clouds
1286,Visby,SE,57.6409,18.296,66.42,72,0,6.91,clear sky
1287,Ahipara,NZ,-35.1667,173.1667,59.61,89,14,17.36,light rain
1288,Sirvintos,LT,55.05,24.95,69.57,92,100,7.16,overcast clouds
1289,Sorland,NO,67.667,12.6934,46.26,76,0,16.28,clear sky
1290,Ahipara,NZ,-35.1667,173.1667,59.61,89,14,17.36,light rain
1291,Mehamn,NO,71.0357,27.8492,44.51,82,52,20.45,broken clouds
1292,Saint-Philippe,RE,-21.3585,55.7679,65.79,81,66,11.03,light rain
1293,Punta Arenas,CL,-53.15,-70.9167,41.11,70,75,18.41,broken clouds
1294,Barrow,US,71.2906,-156.7887,30.22,93,100,11.5,overcast clouds
1295,Kapaa,US,22.0752,-159.319,79.12,75,20,10.36,few clouds
1296,Ostrogozhsk,RU,50.8664,39.0756,67.64,67,38,2.93,scattered clouds
1297,Khatanga,RU,71.9667,102.5,40.14,77,100,8.32,overcast clouds
1298,Camacha,PT,33.0833,-16.3333,65.62,77,40,18.41,scattered clouds
1299,Atuona,PF,-9.8,-139.0333,77.38,72,7,14.9,light rain
1300,Kaitangata,NZ,-46.2817,169.8464,36.88,90,29,4.65,scattered clouds
1301,Ponta Do Sol,PT,32.6667,-17.1,76.71,71,0,3.94,clear sky
1302,Okha,RU,53.5739,142.9478,36.5,97,69,12.66,broken clouds
1303,Kidal,ML,18.4411,1.4078,98.44,7,3,7.31,clear sky
1304,Torbay,CA,47.6666,-52.7314,62.28,96,100,14.97,light rain
1305,Saskylakh,RU,71.9167,114.0833,39.7,79,0,16.22,clear sky
1306,Saint-Philippe,RE,-21.3585,55.7679,65.79,81,66,11.03,light rain
1307,Vaini,TO,-21.2,-175.2,69.96,94,75,4.61,broken clouds
1308,Qaanaaq,GL,77.484,-69.3632,31.24,85,100,4.9,overcast clouds
1309,Jamestown,US,42.097,-79.2353,70.05,40,20,12.66,few clouds
1310,Comodoro Rivadavia,AR,-45.8667,-67.5,48.06,25,0,12.66,clear sky
1311,Yellowknife,CA,62.456,-114.3525,70.32,46,75,10.36,broken clouds
1312,Taltal,CL,-25.4,-70.4833,63.55,72,31,5.77,scattered clouds
1313,Katsuura,JP,35.1333,140.3,68.14,84,100,7.02,overcast clouds
1314,Bengkulu,ID,-3.8004,102.2655,74.64,87,99,2.19,overcast clouds
1315,Banda Aceh,ID,5.5577,95.3222,79.02,80,99,8.63,overcast clouds
1316,Esperance,AU,-33.8667,121.9,56.44,59,96,16.73,overcast clouds
1317,Cape Town,ZA,-33.9258,18.4232,66.38,45,0,3.0,clear sky
1318,Punta Arenas,CL,-53.15,-70.9167,41.11,70,75,18.41,broken clouds
1319,Barrow,US,71.2906,-156.7887,30.22,93,100,11.5,overcast clouds
1320,Hasaki,JP,35.7333,140.8333,66.6,86,100,6.8,overcast clouds
1321,Mataura,NZ,-46.1927,168.8643,39.47,96,100,1.97,moderate rain
1322,Butaritari,KI,3.0707,172.7902,82.11,74,95,13.87,light rain
1323,Oranjemund,NA,-28.55,16.4333,65.64,34,38,4.76,scattered clouds
1324,Sobolevo,RU,54.4299,31.8996,65.75,84,100,4.21,overcast clouds
1325,Hobart,AU,-42.8794,147.3294,46.26,85,100,18.41,light rain
1326,Souillac,MU,-20.5167,57.5167,70.18,88,75,10.36,light rain
1327,Ushuaia,AR,-54.8,-68.3,42.46,56,75,26.46,broken clouds
1328,Barranca,PE,-10.75,-77.7667,67.86,72,39,10.22,scattered clouds
1329,Torbay,CA,47.6666,-52.7314,62.28,96,100,14.97,light rain
1330,Tasiilaq,GL,65.6145,-37.6368,42.96,72,80,5.88,broken clouds
1331,Ushuaia,AR,-54.8,-68.3,42.46,56,75,26.46,broken clouds
1332,Tasiilaq,GL,65.6145,-37.6368,42.96,72,80,5.88,broken clouds
1333,Ushuaia,AR,-54.8,-68.3,42.46,56,75,26.46,broken clouds
1334,Anadyr,RU,64.75,177.4833,48.7,49,0,2.24,clear sky
1335,Estelle,US,29.8458,-90.1067,78.8,93,100,5.75,overcast clouds
1336,Bonavista,CA,48.6499,-53.1147,49.93,97,100,20.42,overcast clouds
1337,Hithadhoo,MV,-0.6,73.0833,84.54,69,43,11.83,scattered clouds
1338,Vila Velha,BR,-20.3297,-40.2925,85.95,55,0,10.36,clear sky
1339,Jamestown,US,42.097,-79.2353,70.05,40,20,12.66,few clouds
1340,Komsomolskiy,UZ,40.4272,71.7189,72.32,53,16,6.91,few clouds
1341,Bagdarin,RU,54.4333,113.6,51.46,92,75,2.98,broken clouds
1342,Tiksi,RU,71.6872,128.8694,39.0,78,3,4.97,clear sky
1343,Punta Arenas,CL,-53.15,-70.9167,41.11,70,75,18.41,broken clouds
1344,Port Elizabeth,ZA,-33.918,25.5701,59.29,100,0,3.44,clear sky
1345,Ahuimanu,US,21.4447,-157.8378,80.31,63,20,12.66,few clouds
1346,Bardiyah,LY,31.7561,25.0865,84.04,48,3,17.22,clear sky
1347,Kachiry,KZ,53.0675,76.1036,66.38,71,100,7.58,overcast clouds
1348,Rio Claro,BR,-22.4114,-47.5614,69.66,83,88,8.48,overcast clouds
1349,Valdez,EC,1.2492,-78.9831,80.22,80,36,13.13,light rain
1350,Yellowknife,CA,62.456,-114.3525,70.32,46,75,10.36,broken clouds
1351,Urdoma,RU,61.7533,48.5442,53.92,95,59,10.38,light rain
1352,Vaini,TO,-21.2,-175.2,69.96,94,75,4.61,broken clouds
1353,Gallipoli,TR,40.4103,26.6708,76.86,68,56,10.07,broken clouds
1354,Hermanus,ZA,-34.4187,19.2345,64.94,40,33,9.33,scattered clouds
1355,Yellowknife,CA,62.456,-114.3525,70.32,46,75,10.36,broken clouds
1356,Saskylakh,RU,71.9167,114.0833,39.7,79,0,16.22,clear sky
1357,Cape Town,ZA,-33.9258,18.4232,66.38,45,0,3.0,clear sky
1358,Atuona,PF,-9.8,-139.0333,77.38,72,7,14.9,light rain
1359,Nouadhibou,MR,20.931,-17.0347,71.58,78,0,20.71,sand
1360,Mehamn,NO,71.0357,27.8492,44.51,82,52,20.45,broken clouds
1361,Bethel,US,41.3712,-73.414,78.58,45,20,11.5,few clouds
1362,Hobart,AU,-42.8794,147.3294,46.26,85,100,18.41,light rain
1363,Kenai,US,60.5544,-151.2583,62.02,76,40,8.05,scattered clouds
1364,Agidel,RU,55.9077,53.9355,57.81,96,84,8.28,heavy intensity rain
1365,Dickinson,US,29.4608,-95.0513,99.09,58,75,4.0,broken clouds
1366,Sorland,NO,67.667,12.6934,46.26,76,0,16.28,clear sky
1367,Sabzevar,IR,36.2126,57.6819,79.88,32,0,16.11,clear sky
1368,Mataura,NZ,-46.1927,168.8643,39.47,96,100,1.97,moderate rain
1369,Kenora,CA,49.8167,-94.4337,72.57,20,20,9.22,few clouds
1370,East London,ZA,-33.0153,27.9116,59.94,88,0,6.91,clear sky
1371,Rikitea,PF,-23.1203,-134.9692,74.97,70,100,14.03,overcast clouds
1372,Ushuaia,AR,-54.8,-68.3,42.46,56,75,26.46,broken clouds
1373,Iqaluit,CA,63.7506,-68.5145,51.53,57,20,16.11,few clouds
1374,Ushuaia,AR,-54.8,-68.3,42.46,56,75,26.46,broken clouds
1375,Carnarvon,AU,-24.8667,113.6333,69.78,71,1,8.37,clear sky
1376,Raudeberg,NO,61.9875,5.1352,56.86,86,66,13.09,broken clouds
1377,Cocorit,MX,27.5833,-109.9667,94.84,41,90,12.1,overcast clouds
1378,Hithadhoo,MV,-0.6,73.0833,84.54,69,43,11.83,scattered clouds
1379,Otane,NZ,-39.8833,176.6333,58.01,56,0,13.65,clear sky
1380,Ushuaia,AR,-54.8,-68.3,42.46,56,75,26.46,broken clouds
1381,Devils Lake,US,48.1128,-98.8651,71.94,55,0,11.5,clear sky
1382,Neryungri,RU,56.6709,124.6491,51.98,94,97,1.92,overcast clouds
1383,Thompson,CA,55.7435,-97.8558,69.96,32,20,3.44,few clouds
1384,Shelburne,CA,44.0787,-80.2041,68.13,47,5,13.02,clear sky
1385,Saint George,US,37.1041,-113.5841,102.63,15,0,3.44,clear sky
1386,Kapaa,US,22.0752,-159.319,79.12,75,20,10.36,few clouds
1387,Cabo San Lucas,MX,22.8909,-109.9124,91.62,67,13,10.63,few clouds
1388,Labuhan,ID,-6.8844,112.2051,78.84,85,42,6.06,scattered clouds
1389,Rikitea,PF,-23.1203,-134.9692,74.97,70,100,14.03,overcast clouds
1390,Busselton,AU,-33.65,115.3333,63.14,89,94,20.71,light rain
1391,Teya,RU,60.3778,92.6267,53.6,66,64,2.33,broken clouds
1392,Caticlan,PH,11.9334,121.9598,81.84,76,17,6.78,few clouds
1393,Punta Arenas,CL,-53.15,-70.9167,41.11,70,75,18.41,broken clouds
1394,Tezu,IN,27.9167,96.1667,73.18,100,100,2.08,overcast clouds
1395,Castro,BR,-24.7911,-50.0119,60.17,84,100,5.66,overcast clouds
1396,Oussouye,SN,12.485,-16.5469,87.98,66,100,13.89,overcast clouds
1397,Yining,CN,29.0361,114.5636,70.3,93,100,1.28,overcast clouds
1398,Rawson,AR,-43.3002,-65.1023,48.99,31,35,8.21,scattered clouds
1399,Puerto Ayora,EC,-0.7393,-90.3518,80.56,69,0,11.39,clear sky
1400,Tuktoyaktuk,CA,69.4541,-133.0374,41.0,65,75,9.22,broken clouds
1401,Jamestown,US,42.097,-79.2353,70.05,40,20,12.66,few clouds
1402,Bredasdorp,ZA,-34.5322,20.0403,58.68,51,100,3.71,overcast clouds
1403,Lebu,CL,-37.6167,-73.65,53.98,61,6,12.71,clear sky
1404,Kenai,US,60.5544,-151.2583,62.02,76,40,8.05,scattered clouds
1405,Daia,RO,44.0,25.9833,70.21,87,69,8.32,broken clouds
1406,Port-Gentil,GA,-0.7193,8.7815,76.96,83,20,5.75,few clouds
1407,Saint-Augustin,CA,51.226,-58.6502,52.83,97,100,11.54,overcast clouds
1408,Codrington,AU,-38.2667,141.9667,51.64,66,100,15.5,overcast clouds
1409,Zheleznodorozhnyy,RU,55.7503,38.0042,72.01,73,47,5.08,scattered clouds
1410,Atuona,PF,-9.8,-139.0333,77.38,72,7,14.9,light rain
1411,Rikitea,PF,-23.1203,-134.9692,74.97,70,100,14.03,overcast clouds
1412,Vitim,RU,59.4511,112.5578,50.68,65,28,3.11,scattered clouds
1413,Sayyan,YE,15.1718,44.3244,69.66,21,92,4.76,overcast clouds
1414,Lorengau,PG,-2.0226,147.2712,79.83,70,18,5.59,few clouds
1415,Sibolga,ID,1.7427,98.7792,75.06,90,100,3.71,overcast clouds
1416,Hobart,AU,-42.8794,147.3294,46.26,85,100,18.41,light rain
1417,Boca Do Acre,BR,-8.7522,-67.3978,74.91,96,100,3.87,overcast clouds
1418,Atuona,PF,-9.8,-139.0333,77.38,72,7,14.9,light rain
1419,Carnarvon,AU,-24.8667,113.6333,69.78,71,1,8.37,clear sky
1420,Saint Anthony,US,45.0205,-93.218,78.87,31,20,8.05,few clouds
1421,Vallenar,CL,-28.5708,-70.7581,79.2,16,5,5.21,clear sky
1422,Punta Arenas,CL,-53.15,-70.9167,41.11,70,75,18.41,broken clouds
1423,Nyaunglebin,MM,17.95,96.7333,75.0,96,100,4.88,overcast clouds
1424,La Palma,US,33.8464,-118.0467,95.5,74,40,9.22,scattered clouds
1425,Namibe,AO,-15.1961,12.1522,71.83,68,0,3.09,clear sky
1426,Nicoya,CR,10.1483,-85.452,84.49,71,58,2.51,broken clouds
1427,Mataura,NZ,-46.1927,168.8643,39.47,96,100,1.97,moderate rain
1428,Punta Arenas,CL,-53.15,-70.9167,41.11,70,75,18.41,broken clouds
1429,Shache,CN,38.4167,77.2406,77.72,23,100,6.64,overcast clouds
1430,Ushuaia,AR,-54.8,-68.3,42.46,56,75,26.46,broken clouds
1431,Sinnamary,GF,5.3833,-52.95,82.42,75,87,8.05,overcast clouds
1432,Mataura,NZ,-46.1927,168.8643,39.47,96,100,1.97,moderate rain
1433,Hambantota,LK,6.1241,81.1185,79.14,94,20,6.91,few clouds
1434,Port Alfred,ZA,-33.5906,26.891,58.17,87,0,11.39,clear sky
1435,Balaka,MW,-14.9793,34.9558,59.05,76,4,5.01,clear sky
1436,Yellowknife,CA,62.456,-114.3525,70.32,46,75,10.36,broken clouds
1437,Odweyne,SO,9.4092,45.064,75.78,59,52,11.48,broken clouds
1438,Jamestown,US,42.097,-79.2353,70.05,40,20,12.66,few clouds
1439,Agucadoura,PT,41.4318,-8.7804,82.08,75,5,21.21,clear sky
1440,Khatanga,RU,71.9667,102.5,40.14,77,100,8.32,overcast clouds
1441,Jamestown,US,42.097,-79.2353,70.05,40,20,12.66,few clouds
1442,San Benito Abad,CO,8.929,-75.0271,86.68,69,100,2.71,overcast clouds
1443,Atuona,PF,-9.8,-139.0333,77.38,72,7,14.9,light rain
1444,Scottsboro,US,34.6723,-86.0341,81.63,50,0,0.0,clear sky
1445,Bluff,NZ,-46.6,168.3333,39.79,95,100,13.62,light rain
1446,Chokurdakh,RU,70.6333,147.9167,48.72,53,73,10.74,broken clouds
1447,Kirakira,SB,-10.4544,161.9205,79.23,84,23,5.57,few clouds
1448,Nemuro,JP,43.3236,145.575,47.64,92,36,9.75,scattered clouds
1449,Hofn,IS,64.2539,-15.2082,50.02,81,100,16.11,overcast clouds
1450,Yar-Sale,RU,66.8333,70.8333,54.27,84,100,13.42,overcast clouds
1451,Nago,JP,26.5881,127.9761,81.03,87,100,17.38,overcast clouds
1452,Jamestown,US,42.097,-79.2353,70.05,40,20,12.66,few clouds
1453,Rikitea,PF,-23.1203,-134.9692,74.97,70,100,14.03,overcast clouds
1454,East London,ZA,-33.0153,27.9116,59.94,88,0,6.91,clear sky
1455,Kapaa,US,22.0752,-159.319,79.12,75,20,10.36,few clouds
1456,Port-Gentil,GA,-0.7193,8.7815,76.96,83,20,5.75,few clouds
1457,Geraldton,AU,-28.7667,114.6,63.01,94,40,10.36,scattered clouds
1458,Abu Kamal,SY,34.4506,40.9171,88.07,14,0,7.11,clear sky
1459,Bantry,IE,51.6833,-9.45,58.78,91,48,20.65,scattered clouds
1460,Savantvadi,IN,15.9,73.8167,76.39,89,100,2.59,light rain
1461,Castro,BR,-24.7911,-50.0119,60.17,84,100,5.66,overcast clouds
1462,Mozarlandia,BR,-14.7447,-50.5706,90.16,27,100,9.06,overcast clouds
1463,Chumikan,RU,54.7183,135.315,39.22,93,100,2.71,overcast clouds
1464,Agua Prieta,MX,31.3,-109.5667,97.38,18,100,1.34,overcast clouds
1465,Rikitea,PF,-23.1203,-134.9692,74.97,70,100,14.03,overcast clouds
1466,Bluff,NZ,-46.6,168.3333,39.79,95,100,13.62,light rain
1467,Punta Arenas,CL,-53.15,-70.9167,41.11,70,75,18.41,broken clouds
1468,Socorro,US,31.6546,-106.3033,99.61,16,0,11.5,clear sky
1469,Kande,TG,9.9578,1.0447,82.74,85,98,10.42,moderate rain
1470,Vaini,TO,-21.2,-175.2,69.96,94,75,4.61,broken clouds
1471,New Norfolk,AU,-42.7826,147.0587,45.9,86,100,5.99,overcast clouds
1472,Trat,TH,12.5,102.5,83.91,88,100,0.2,overcast clouds
1473,Cape Town,ZA,-33.9258,18.4232,66.38,45,0,3.0,clear sky
1474,Santarem,BR,-2.4431,-54.7083,86.13,79,20,9.22,few clouds
1475,Rikitea,PF,-23.1203,-134.9692,74.97,70,100,14.03,overcast clouds
1476,Porirua,NZ,-41.1333,174.85,56.62,85,100,27.81,overcast clouds
1477,Hobart,AU,-42.8794,147.3294,46.26,85,100,18.41,light rain
1478,Sao Joao Da Barra,BR,-21.6403,-41.0511,86.09,68,25,8.79,scattered clouds
1479,Arraial Do Cabo,BR,-22.9661,-42.0278,78.76,69,75,3.44,broken clouds
1480,Hobart,AU,-42.8794,147.3294,46.26,85,100,18.41,light rain
1481,Saint George,US,37.1041,-113.5841,102.63,15,0,3.44,clear sky
1482,Georgetown,MY,5.4112,100.3354,80.53,93,20,1.14,few clouds
1483,Nikolskoye,RU,59.7035,30.7861,62.49,78,100,3.53,overcast clouds
1484,Ambon,ID,-3.6954,128.1814,75.34,94,0,2.3,clear sky
1485,Kodiak,US,57.79,-152.4072,56.71,67,0,5.75,clear sky
1486,Saint-Philippe,RE,-21.3585,55.7679,65.79,81,66,11.03,light rain
1487,Terrace Bay,CA,48.7834,-87.1,53.33,57,58,12.5,broken clouds
1488,Killybegs,IE,54.6333,-8.45,56.91,83,39,26.49,scattered clouds
1489,Chuy,UY,-33.6971,-53.4616,51.03,50,12,14.74,few clouds
1490,Avarua,CK,-21.2078,-159.775,75.25,60,72,5.75,broken clouds
1491,Mahon,ES,39.8885,4.2658,77.56,47,0,8.05,clear sky
1492,Albany,US,42.6001,-73.9662,74.03,49,6,1.01,clear sky
1493,Albany,US,42.6001,-73.9662,74.03,49,6,1.01,clear sky
1494,New Norfolk,AU,-42.7826,147.0587,45.9,86,100,5.99,overcast clouds
1495,Busselton,AU,-33.65,115.3333,63.14,89,94,20.71,light rain
1496,Bud,US,39.447,-86.1758,77.2,55,100,10.07,overcast clouds
1497,Port Elizabeth,ZA,-33.918,25.5701,59.29,100,0,3.44,clear sky
1498,Hasaki,JP,35.7333,140.8333,66.6,86,100,6.8,overcast clouds
1499,Hami,CN,42.8,93.45,74.62,10,35,4.25,scattered clouds
1500,Bredasdorp,ZA,-34.5322,20.0403,58.68,51,100,3.71,overcast clouds
1501,Monrovia,LR,6.3005,-10.7969,78.3,84,100,9.51,light rain
1502,Broome,US,42.2506,-75.833,72.7,51,20,14.97,few clouds
1503,Dikson,RU,73.5069,80.5464,32.25,87,96,6.4,overcast clouds
1504,Bozovici,RO,44.9389,22.0017,67.33,93,65,2.68,broken clouds
1505,Ushuaia,AR,-54.8,-68.3,42.46,56,75,26.46,broken clouds
1506,Busselton,AU,-33.65,115.3333,63.14,89,94,20.71,light rain
1507,Richards Bay,ZA,-28.783,32.0377,64.04,85,11,4.47,few clouds
1508,Severo-Kurilsk,RU,50.6789,156.125,43.32,94,100,9.28,overcast clouds
1509,Clyde River,CA,70.4692,-68.5914,34.03,93,100,10.36,overcast clouds
1510,Punta Arenas,CL,-53.15,-70.9167,41.11,70,75,18.41,broken clouds
1511,Tiznit,MA,29.5833,-9.5,73.51,64,1,6.17,clear sky
1512,Saint-Augustin,CA,51.226,-58.6502,52.83,97,100,11.54,overcast clouds
1513,Ushuaia,AR,-54.8,-68.3,42.46,56,75,26.46,broken clouds
1514,Lodja,CD,-3.4833,23.4333,73.81,48,8,2.53,clear sky
1515,Nago,JP,26.5881,127.9761,81.03,87,100,17.38,overcast clouds
1516,Tura,IN,25.5198,90.2201,72.5,97,100,6.46,overcast clouds
1517,Pacific Grove,US,36.6177,-121.9166,92.34,46,0,0.0,clear sky
1518,General Roca,AR,-39.0333,-67.5833,55.24,25,0,10.78,clear sky
1519,Narasannapeta,IN,18.4167,84.05,86.04,61,100,6.06,overcast clouds
1520,Ponta Do Sol,PT,32.6667,-17.1,76.71,71,0,3.94,clear sky
1521,Cabo San Lucas,MX,22.8909,-109.9124,91.62,67,13,10.63,few clouds
1522,Ushuaia,AR,-54.8,-68.3,42.46,56,75,26.46,broken clouds
1523,Mantua,IT,45.1667,10.7833,83.44,60,3,4.63,clear sky
1524,Chuy,UY,-33.6971,-53.4616,51.03,50,12,14.74,few clouds
1525,Punta Arenas,CL,-53.15,-70.9167,41.11,70,75,18.41,broken clouds
1526,Mataura,NZ,-46.1927,168.8643,39.47,96,100,1.97,moderate rain
1527,Nome,US,64.5011,-165.4064,57.27,30,0,6.91,clear sky
1528,Vaini,TO,-21.2,-175.2,69.96,94,75,4.61,broken clouds
1529,Ostrovnoy,RU,68.0531,39.5131,43.61,73,16,6.38,few clouds
1530,Souillac,MU,-20.5167,57.5167,70.18,88,75,10.36,light rain
1531,Kysyl-Syr,RU,63.8986,122.7617,50.43,68,72,4.97,broken clouds
1532,Hobart,AU,-42.8794,147.3294,46.26,85,100,18.41,light rain
1533,Punta Arenas,CL,-53.15,-70.9167,41.11,70,75,18.41,broken clouds
1534,Carauari,BR,-4.8828,-66.8958,82.74,80,100,2.04,overcast clouds
1535,Waitati,NZ,-45.75,170.5667,39.79,63,36,3.51,scattered clouds
1536,Busselton,AU,-33.65,115.3333,63.14,89,94,20.71,light rain
1537,Kavaratti,IN,10.5669,72.642,83.08,78,100,12.62,overcast clouds
1538,Faanui,PF,-16.4833,-151.75,80.24,75,9,18.97,clear sky
1539,Bluff,NZ,-46.6,168.3333,39.79,95,100,13.62,light rain
1540,Kendari,ID,-3.945,122.4989,74.98,93,80,2.98,broken clouds
1541,Jamestown,US,42.097,-79.2353,70.05,40,20,12.66,few clouds
1542,Castro,BR,-24.7911,-50.0119,60.17,84,100,5.66,overcast clouds
1543,East London,ZA,-33.0153,27.9116,59.94,88,0,6.91,clear sky
1544,Ushuaia,AR,-54.8,-68.3,42.46,56,75,26.46,broken clouds
1545,Buin,CL,-33.7333,-70.75,77.43,24,100,1.3,overcast clouds
1546,Polonnaruwa,LK,7.9333,81.0,79.7,68,100,10.89,overcast clouds
1547,Khatanga,RU,71.9667,102.5,40.14,77,100,8.32,overcast clouds
1548,Mataura,NZ,-46.1927,168.8643,39.47,96,100,1.97,moderate rain
1549,Rikitea,PF,-23.1203,-134.9692,74.97,70,100,14.03,overcast clouds
1550,Shimoda,JP,34.6667,138.95,63.1,87,100,2.35,overcast clouds
